mid,x,y,z,mpry,pitch,roll,yaw,vgx,vgy,vgz,templ,temph,tof,h,bat,baro,time,agx,agy,agz
-1,-100,-100,-100,"0,0,0",-1,0,-86,0,0,0,82,84,10,0,46,417.51,109,-18.0,-1.0,-1001.0
-1,-100,-100,-100,"0,0,0",-1,0,-86,0,0,0,87,89,10,0,46,417.48,109,-21.0,-1.0,-999.0
-1,-100,-100,-100,"0,0,0",-1,0,-86,0,0,0,87,89,10,0,46,417.42,109,-20.0,1.0,-997.0
-1,-100,-100,-100,"0,0,0",-1,0,-86,0,0,0,87,89,10,0,46,417.53,109,-20.0,0.0,-1001.0
-1,-100,-100,-100,"0,0,0",-1,0,-86,0,0,0,87,89,10,0,46,417.53,109,-20.0,0.0,-1001.0
-1,-100,-100,-100,"0,0,0",-1,0,-86,0,0,0,87,89,10,0,46,417.52,109,-20.0,0.0,-998.0
-1,-100,-100,-100,"0,0,0",-1,0,-86,0,0,0,87,89,10,0,46,417.51,109,-19.0,0.0,-999.0
-1,-100,-100,-100,"0,0,0",-1,0,-86,0,0,0,87,89,10,0,46,417.44,109,-20.0,0.0,-999.0
-1,-100,-100,-100,"0,0,0",-1,0,-86,0,0,0,87,89,10,0,46,417.44,109,-20.0,0.0,-999.0
-1,-100,-100,-100,"0,0,0",-1,0,-86,0,0,0,87,89,10,0,46,417.52,109,-19.0,0.0,-1001.0
-1,-100,-100,-100,"0,0,0",-1,0,-86,0,0,0,87,89,10,0,46,417.42,109,-19.0,0.0,-1003.0
-1,-100,-100,-100,"0,0,0",-1,0,-86,0,0,0,87,89,10,0,46,417.49,109,-19.0,4.0,-1005.0
-1,-100,-100,-100,"0,0,0",-1,0,-86,0,0,0,87,89,10,0,46,417.49,109,-19.0,4.0,-1005.0
-1,-100,-100,-100,"0,0,0",-1,0,-86,0,0,0,87,89,10,0,46,417.5,109,-19.0,-4.0,-1006.0
-1,-100,-100,-100,"0,0,0",-1,0,-86,0,0,0,87,89,10,0,46,417.5,109,-22.0,3.0,-991.0
-1,-100,-100,-100,"0,0,0",-1,0,-86,0,0,0,87,89,10,0,46,417.44,109,-21.0,1.0,-994.0
-1,-100,-100,-100,"0,0,0",-1,0,-86,0,0,0,87,89,10,0,46,417.44,109,-21.0,1.0,-994.0
-1,-100,-100,-100,"0,0,0",-1,0,-86,0,0,0,87,89,10,0,46,417.49,109,-18.0,-2.0,-1001.0
-1,-100,-100,-100,"0,0,0",-1,0,-86,0,0,0,87,89,10,0,46,417.51,109,-19.0,4.0,-998.0
-1,-100,-100,-100,"0,0,0",-1,0,-86,0,0,0,87,89,10,0,46,417.45,109,-20.0,-1.0,-1001.0
-1,-100,-100,-100,"0,0,0",-1,0,-86,0,0,0,87,89,10,0,46,417.45,109,-20.0,-1.0,-1001.0
-1,-100,-100,-100,"0,0,0",-1,0,-86,0,0,0,87,89,10,0,46,417.45,109,-19.0,2.0,-1000.0
-1,-100,-100,-100,"0,0,0",-1,0,-86,0,0,0,87,89,10,0,46,417.46,109,-21.0,0.0,-1000.0
-1,-100,-100,-100,"0,0,0",-1,0,-86,0,0,0,87,89,10,0,46,417.43,109,-21.0,0.0,-1000.0
-1,-100,-100,-100,"0,0,0",-1,0,-86,0,0,0,87,89,10,0,46,417.43,109,-21.0,0.0,-1000.0
-1,-100,-100,-100,"0,0,0",-1,0,-86,0,0,0,87,89,10,0,46,417.43,109,-20.0,2.0,-1002.0
-1,-100,-100,-100,"0,0,0",-1,0,-86,0,0,0,87,89,10,0,46,417.47,109,-19.0,0.0,-1000.0
-1,-100,-100,-100,"0,0,0",-1,0,-86,0,0,0,87,89,10,0,46,417.47,109,-18.0,0.0,-999.0
-1,-100,-100,-100,"0,0,0",-1,0,-86,0,0,0,87,89,10,0,46,417.47,109,-18.0,0.0,-999.0
-1,-100,-100,-100,"0,0,0",-1,0,-86,0,0,0,87,89,10,0,46,417.47,109,-23.0,0.0,-998.0
-1,-100,-100,-100,"0,0,0",-1,0,-86,0,0,0,87,89,10,0,46,417.48,109,-19.0,2.0,-999.0
-1,-100,-100,-100,"0,0,0",-1,0,-86,0,0,0,87,89,10,0,46,417.44,109,-20.0,0.0,-1002.0
-1,-100,-100,-100,"0,0,0",-1,0,-86,0,0,0,87,89,10,0,46,417.44,109,-20.0,0.0,-1002.0
-1,-100,-100,-100,"0,0,0",-1,0,-86,0,0,0,87,89,10,0,46,417.43,109,-22.0,0.0,-999.0
-1,-100,-100,-100,"0,0,0",-1,0,-86,0,0,0,87,89,10,0,46,417.47,109,-18.0,-1.0,-1001.0
-1,-100,-100,-100,"0,0,0",-1,0,-86,0,0,0,87,89,10,0,46,417.42,109,-19.0,-1.0,-1001.0
-1,-100,-100,-100,"0,0,0",-1,0,-86,0,0,0,86,89,10,0,46,417.35,109,-21.0,3.0,-998.0
-1,-100,-100,-100,"0,0,0",-1,0,-86,0,0,0,86,89,10,0,46,417.35,109,-21.0,3.0,-998.0
-1,-100,-100,-100,"0,0,0",-1,0,-86,0,0,0,86,89,10,0,46,417.44,109,-18.0,0.0,-1000.0
-1,-100,-100,-100,"0,0,0",-1,0,-86,0,0,0,86,89,10,0,46,417.39,109,-21.0,1.0,-999.0
-1,-100,-100,-100,"0,0,0",-1,0,-86,0,0,0,86,89,10,0,46,417.42,109,-19.0,0.0,-1001.0
-1,-100,-100,-100,"0,0,0",-1,0,-86,0,0,0,86,89,10,0,46,417.42,109,-20.0,0.0,-1001.0
-1,-100,-100,-100,"0,0,0",-1,0,-86,0,0,0,86,89,10,0,46,417.5,109,-21.0,1.0,-999.0
-1,-100,-100,-100,"0,0,0",-1,0,-86,0,0,0,86,89,10,0,46,417.42,109,-18.0,0.0,-998.0
-1,-100,-100,-100,"0,0,0",-1,0,-86,0,0,0,86,89,10,0,46,417.42,109,-18.0,0.0,-998.0
-1,-100,-100,-100,"0,0,0",-1,0,-86,0,0,0,86,89,10,0,46,417.43,109,-20.0,-1.0,-998.0
-1,-100,-100,-100,"0,0,0",-1,0,-86,0,0,0,86,89,10,0,46,417.47,109,-20.0,0.0,-999.0
-1,-100,-100,-100,"0,0,0",-1,0,-86,0,0,0,86,89,10,0,46,417.47,109,-19.0,0.0,-1000.0
-1,-100,-100,-100,"0,0,0",-1,0,-86,0,0,0,86,89,10,0,46,417.47,109,-19.0,0.0,-1000.0
-1,-100,-100,-100,"0,0,0",-1,0,-86,0,0,0,87,88,10,0,46,417.46,109,-19.0,0.0,-998.0
-1,-100,-100,-100,"0,0,0",-1,0,-86,0,0,0,87,88,10,0,46,417.52,109,-22.0,-1.0,-1001.0
-1,-100,-100,-100,"0,0,0",-1,0,-86,0,0,0,87,88,10,0,46,417.44,109,-20.0,0.0,-1000.0
-1,-100,-100,-100,"0,0,0",-1,0,-86,0,0,0,87,88,10,0,46,417.44,109,-20.0,0.0,-1000.0
-1,-100,-100,-100,"0,0,0",-1,0,-86,0,0,0,87,88,10,0,46,417.46,109,-22.0,0.0,-1001.0
-1,-100,-100,-100,"0,0,0",-1,0,-86,0,0,0,87,88,10,0,46,417.44,109,-20.0,1.0,-1002.0
-1,-100,-100,-100,"0,0,0",-1,0,-86,0,0,0,87,88,10,0,46,417.49,109,-19.0,0.0,-999.0
-1,-100,-100,-100,"0,0,0",-1,0,-86,0,0,0,87,88,10,0,46,417.49,109,-19.0,0.0,-999.0
-1,-100,-100,-100,"0,0,0",0,0,-86,0,0,0,85,87,77,30,46,418.39,118,-13.0,30.0,-973.0
-1,-100,-100,-100,"0,0,0",0,0,-86,0,0,0,85,87,77,30,46,418.47,118,0.0,9.0,-966.0
-1,-100,-100,-100,"0,0,0",0,0,-86,0,0,0,85,87,77,30,46,418.46,118,10.0,6.0,-984.0
-1,-100,-100,-100,"0,0,0",0,0,-86,0,0,0,85,87,76,30,46,418.44,118,24.0,20.0,-967.0
-1,-100,-100,-100,"0,0,0",0,0,-86,0,0,0,85,87,76,30,46,418.44,118,24.0,20.0,-967.0
-1,-100,-100,-100,"0,0,0",0,-1,-86,0,0,0,85,87,75,30,46,418.33,119,1.0,0.0,-1019.0
-1,-100,-100,-100,"0,0,0",0,-1,-86,0,0,0,85,87,75,30,46,418.33,119,1.0,0.0,-1019.0
-1,-100,-100,-100,"0,0,0",0,-1,-86,0,0,0,85,87,74,30,46,418.44,119,0.0,21.0,-991.0
-1,-100,-100,-100,"0,0,0",0,-1,-85,0,0,0,85,87,74,30,46,418.36,119,1.0,17.0,-984.0
-1,-100,-100,-100,"0,0,0",0,0,-85,0,0,0,85,87,73,30,46,418.4,119,-5.0,15.0,-1013.0
-1,-100,-100,-100,"0,0,0",0,0,-85,0,0,0,85,87,73,30,46,418.4,119,-5.0,15.0,-1013.0
-1,-100,-100,-100,"0,0,0",0,0,-85,0,0,0,85,87,73,30,46,418.38,119,14.0,14.0,-1003.0
-1,-100,-100,-100,"0,0,0",0,0,-86,0,0,0,85,87,73,30,46,418.39,119,20.0,-1.0,-1027.0
-1,-100,-100,-100,"0,0,0",1,-1,-86,0,0,0,85,87,73,30,46,418.34,119,11.0,22.0,-1010.0
-1,-100,-100,-100,"0,0,0",1,-1,-86,0,0,0,85,87,73,30,46,418.34,119,11.0,22.0,-1010.0
-1,-100,-100,-100,"0,0,0",0,-1,-86,0,0,0,85,87,72,30,46,418.31,119,44.0,2.0,-1007.0
-1,-100,-100,-100,"0,0,0",0,-1,-86,0,0,0,85,87,73,30,46,418.23,119,11.0,6.0,-1027.0
-1,-100,-100,-100,"0,0,0",0,0,-86,0,0,0,85,87,73,30,46,418.22,119,-3.0,20.0,-1019.0
-1,-100,-100,-100,"0,0,0",0,0,-86,0,0,0,85,87,73,30,46,418.17,120,9.0,4.0,-1019.0
-1,-100,-100,-100,"0,0,0",0,0,-86,0,0,0,85,87,73,30,46,418.17,120,9.0,4.0,-1019.0
-1,-100,-100,-100,"0,0,0",0,-1,-86,0,0,0,85,87,73,30,46,418.21,120,20.0,24.0,-996.0
-1,-100,-100,-100,"0,0,0",0,0,-86,0,0,1,85,86,74,30,46,418.17,120,37.0,9.0,-1114.0
-1,-100,-100,-100,"0,0,0",0,0,-86,0,0,1,85,86,74,30,46,418.17,120,37.0,9.0,-1114.0
-1,-100,-100,-100,"0,0,0",1,0,-86,0,0,2,85,86,76,30,46,418.32,120,60.0,20.0,-1091.0
-1,-100,-100,-100,"0,0,0",1,0,-87,0,0,3,85,86,79,30,46,418.35,120,40.0,32.0,-1081.0
-1,-100,-100,-100,"0,0,0",3,-1,-87,0,0,3,85,86,82,40,46,418.31,120,45.0,17.0,-928.0
-1,-100,-100,-100,"0,0,0",3,-1,-87,0,0,3,85,86,82,40,46,418.31,120,45.0,17.0,-928.0
-1,-100,-100,-100,"0,0,0",5,-1,-87,0,0,2,85,86,86,40,46,418.37,120,25.0,19.0,-931.0
-1,-100,-100,-100,"0,0,0",5,0,-87,0,0,1,85,86,89,40,46,418.4,120,34.0,16.0,-938.0
-1,-100,-100,-100,"0,0,0",5,0,-87,0,-1,1,85,86,91,40,46,418.43,120,35.0,13.0,-958.0
-1,-100,-100,-100,"0,0,0",5,0,-87,0,-1,1,85,86,91,40,46,418.43,120,35.0,13.0,-958.0
-1,-100,-100,-100,"0,0,0",5,0,-87,0,-1,0,85,86,92,40,46,418.37,120,28.0,21.0,-969.0
-1,-100,-100,-100,"0,0,0",5,0,-87,0,-2,0,85,86,93,40,46,418.38,121,49.0,25.0,-948.0
-1,-100,-100,-100,"0,0,0",5,-1,-87,0,-2,0,85,86,94,50,46,418.48,121,49.0,20.0,-986.0
-1,-100,-100,-100,"0,0,0",5,-1,-87,0,-2,0,85,86,94,50,46,418.48,121,49.0,20.0,-986.0
-1,-100,-100,-100,"0,0,0",5,-1,-87,0,-3,0,85,87,94,50,46,418.35,121,45.0,13.0,-995.0
-1,-100,-100,-100,"0,0,0",5,-1,-87,0,-3,0,85,87,95,50,46,418.36,121,52.0,0.0,-1002.0
-1,-100,-100,-100,"0,0,0",5,0,-87,0,-4,0,85,87,96,50,46,418.46,121,36.0,-20.0,-988.0
-1,-100,-100,-100,"0,0,0",5,0,-87,0,-4,0,85,87,96,50,46,418.46,121,36.0,-20.0,-988.0
-1,-100,-100,-100,"0,0,0",5,0,-87,0,-4,0,85,87,97,50,46,418.41,121,34.0,-16.0,-1010.0
-1,-100,-100,-100,"0,0,0",5,0,-87,0,-5,0,85,87,98,50,46,418.47,121,36.0,-6.0,-1012.0
-1,-100,-100,-100,"0,0,0",5,0,-87,0,-5,0,85,87,102,50,46,418.32,121,57.0,-20.0,-1016.0
-1,-100,-100,-100,"0,0,0",5,0,-87,0,-5,0,85,87,102,50,46,418.32,121,57.0,-20.0,-1016.0
-1,-100,-100,-100,"0,0,0",5,0,-87,1,-5,0,85,87,130,50,46,418.43,121,44.0,-2.0,-999.0
-1,-100,-100,-100,"0,0,0",5,1,-87,1,-6,0,85,87,176,50,46,418.42,121,48.0,-6.0,-983.0
-1,-100,-100,-100,"0,0,0",3,1,-86,0,-6,0,85,87,180,50,46,418.35,122,69.0,9.0,-988.0
-1,-100,-100,-100,"0,0,0",3,1,-86,0,-6,0,85,87,180,50,46,418.35,122,69.0,9.0,-988.0
-1,-100,-100,-100,"0,0,0",1,0,-86,0,-6,0,85,87,180,50,46,418.34,122,46.0,-10.0,-990.0
-1,-100,-100,-100,"0,0,0",0,0,-86,0,-6,0,85,87,180,50,46,418.48,122,30.0,-24.0,-1027.0
-1,-100,-100,-100,"0,0,0",-3,0,-87,0,-6,0,85,87,182,50,46,418.46,122,66.0,-21.0,-996.0
-1,-100,-100,-100,"0,0,0",-3,0,-87,0,-6,0,85,87,182,50,46,418.46,122,66.0,-21.0,-996.0
-1,-100,-100,-100,"0,0,0",-7,0,-87,0,-4,0,85,87,185,50,46,418.42,122,49.0,-21.0,-987.0
-1,-100,-100,-100,"0,0,0",-8,0,-87,0,-3,0,85,87,184,50,46,418.37,122,21.0,-11.0,-1017.0
-1,-100,-100,-100,"0,0,0",-7,1,-87,0,-1,0,85,87,187,50,46,418.36,122,2.0,-13.0,-998.0
-1,-100,-100,-100,"0,0,0",-7,1,-87,0,-1,0,85,87,187,50,46,418.36,122,2.0,-13.0,-998.0
-1,-100,-100,-100,"0,0,0",-6,1,-87,0,0,0,85,87,186,50,46,418.46,122,6.0,-10.0,-1003.0
-1,-100,-100,-100,"0,0,0",-3,1,-87,0,0,0,85,87,185,50,46,418.49,122,10.0,-1.0,-998.0
-1,-100,-100,-100,"0,0,0",-1,0,-86,0,0,0,85,87,185,50,46,418.49,122,1.0,-7.0,-1004.0
-1,-100,-100,-100,"0,0,0",0,0,-86,0,0,0,85,87,186,50,46,418.46,123,6.0,-17.0,-982.0
-1,-100,-100,-100,"0,0,0",0,0,-86,0,0,0,85,87,186,50,46,418.48,123,16.0,5.0,-968.0
-1,-100,-100,-100,"0,0,0",0,0,-86,0,0,0,85,87,186,50,46,418.48,123,16.0,5.0,-968.0
-1,-100,-100,-100,"0,0,0",2,1,-86,0,0,0,84,87,188,50,46,418.57,123,-1.0,-3.0,-986.0
-1,-100,-100,-100,"0,0,0",0,5,-86,0,0,0,84,87,178,50,46,418.61,123,4.0,-11.0,-991.0
-1,-100,-100,-100,"0,0,0",0,8,-86,-1,0,0,84,87,178,50,46,418.66,123,-8.0,-2.0,-1006.0
-1,-100,-100,-100,"0,0,0",0,8,-86,-1,0,0,84,87,178,50,46,418.66,123,-8.0,-2.0,-1006.0
-1,-100,-100,-100,"0,0,0",0,8,-86,-2,0,0,84,87,187,50,46,418.63,123,-5.0,-3.0,-1007.0
-1,-100,-100,-100,"0,0,0",0,8,-86,-3,0,0,84,87,190,50,46,418.68,123,-11.0,-38.0,-1015.0
-1,-100,-100,-100,"0,0,0",0,8,-86,-4,0,0,84,87,189,50,46,418.6,123,-10.0,-36.0,-999.0
-1,-100,-100,-100,"0,0,0",0,8,-86,-4,0,0,84,87,189,50,46,418.6,123,-10.0,-36.0,-999.0
-1,-100,-100,-100,"0,0,0",0,8,-86,-5,0,0,84,87,191,50,46,418.5,123,0.0,-38.0,-1002.0
-1,-100,-100,-100,"0,0,0",0,6,-86,-6,0,0,84,87,188,50,46,418.51,123,-12.0,-36.0,-995.0
-1,-100,-100,-100,"0,0,0",0,-1,-86,-6,-1,0,84,87,188,50,46,418.51,124,-11.0,-27.0,-987.0
-1,-100,-100,-100,"0,0,0",0,-1,-86,-6,-1,0,84,87,188,50,46,418.51,124,-11.0,-27.0,-987.0
-1,-100,-100,-100,"0,0,0",0,-7,-86,-5,-1,0,84,87,189,50,46,418.51,124,-30.0,-63.0,-1055.0
-1,-100,-100,-100,"0,0,0",0,-5,-86,-4,0,0,84,86,187,50,46,418.57,124,-25.0,-22.0,-1003.0
-1,-100,-100,-100,"0,0,0",0,-2,-86,-3,0,0,84,86,187,50,46,418.54,124,-22.0,-22.0,-981.0
-1,-100,-100,-100,"0,0,0",0,-2,-86,-3,0,0,84,86,187,50,46,418.54,124,-22.0,-22.0,-981.0
-1,-100,-100,-100,"0,0,0",-1,-1,-86,-2,0,0,84,86,185,50,46,418.51,124,-9.0,-15.0,-988.0
-1,-100,-100,-100,"0,0,0",-1,0,-86,-2,0,0,84,86,184,50,46,418.54,124,-16.0,-22.0,-994.0
-1,-100,-100,-100,"0,0,0",-1,0,-86,-1,0,0,84,86,184,50,46,418.54,124,-14.0,-15.0,-1000.0
-1,-100,-100,-100,"0,0,0",-1,0,-86,-1,0,0,84,86,184,50,46,418.54,124,-14.0,-15.0,-1000.0
-1,-100,-100,-100,"0,0,0",0,0,-86,-1,0,0,84,86,185,50,46,418.55,124,-7.0,1.0,-998.0
-1,-100,-100,-100,"0,0,0",0,0,-86,-1,0,0,84,86,183,50,46,418.53,124,-25.0,0.0,-999.0
-1,-100,-100,-100,"0,0,0",0,-1,-86,-1,0,0,84,86,181,50,46,418.52,124,-18.0,14.0,-980.0
-1,-100,-100,-100,"0,0,0",-1,-3,-86,0,0,0,84,86,182,50,46,418.52,125,-19.0,-8.0,-1017.0
-1,-100,-100,-100,"0,0,0",-1,-3,-86,0,0,0,84,86,182,50,46,418.52,125,-19.0,-8.0,-1017.0
-1,-100,-100,-100,"0,0,0",-1,-1,-86,0,0,0,84,86,181,50,46,418.52,125,-20.0,7.0,-1002.0
-1,-100,-100,-100,"0,0,0",-1,0,-86,0,0,0,84,86,180,50,46,418.54,125,-1.0,3.0,-1003.0
-1,-100,-100,-100,"0,0,0",-1,0,-86,0,0,0,84,86,180,50,46,418.37,125,-35.0,12.0,-1014.0
-1,-100,-100,-100,"0,0,0",-1,0,-86,0,0,0,84,86,180,50,46,418.37,125,-35.0,12.0,-1014.0
-1,-100,-100,-100,"0,0,0",-1,0,-86,0,0,0,84,86,178,50,46,418.43,125,-8.0,15.0,-987.0
-1,-100,-100,-100,"0,0,0",-1,0,-86,0,0,0,84,86,178,50,46,418.6,125,-7.0,4.0,-1005.0
-1,-100,-100,-100,"0,0,0",-1,0,-86,0,0,0,84,86,177,50,46,418.47,125,-19.0,14.0,-1010.0
-1,-100,-100,-100,"0,0,0",-1,0,-86,0,0,0,84,86,177,50,46,418.47,125,-19.0,14.0,-1010.0
-1,-100,-100,-100,"0,0,0",-1,0,-86,0,0,0,84,86,177,50,46,418.55,125,-19.0,-2.0,-1014.0
-1,-100,-100,-100,"0,0,0",-1,0,-86,0,0,0,84,86,177,50,46,418.55,125,-8.0,14.0,-1024.0
-1,-100,-100,-100,"0,0,0",-1,0,-86,0,0,0,84,86,177,50,46,418.45,125,-11.0,0.0,-1002.0
-1,-100,-100,-100,"0,0,0",-1,0,-86,0,0,0,84,86,177,50,46,418.45,125,-11.0,0.0,-1002.0
-1,-100,-100,-100,"0,0,0",-2,0,-86,0,0,0,84,86,176,50,46,418.45,126,-16.0,0.0,-1014.0
-1,-100,-100,-100,"0,0,0",-6,0,-86,0,0,0,84,86,177,50,46,418.41,126,-11.0,3.0,-1015.0
-1,-100,-100,-100,"0,0,0",-8,0,-86,0,1,0,84,86,178,50,46,418.43,126,-29.0,26.0,-1027.0
-1,-100,-100,-100,"0,0,0",-8,0,-86,0,1,0,84,86,178,50,46,418.43,126,-29.0,26.0,-1027.0
-1,-100,-100,-100,"0,0,0",-7,0,-86,0,2,0,84,86,176,50,46,418.45,126,-49.0,14.0,-1010.0
-1,-100,-100,-100,"0,0,0",-3,0,-86,0,3,0,84,86,175,50,46,418.49,126,-50.0,3.0,-1012.0
-1,-100,-100,-100,"0,0,0",-1,0,-86,0,3,0,84,86,176,50,46,418.51,126,-59.0,0.0,-1007.0
-1,-100,-100,-100,"0,0,0",0,0,-86,0,3,0,84,86,176,50,46,418.41,126,-22.0,8.0,-980.0
-1,-100,-100,-100,"0,0,0",0,0,-86,0,3,0,84,86,175,50,46,418.42,126,-36.0,3.0,-999.0
-1,-100,-100,-100,"0,0,0",0,0,-86,0,3,0,84,86,175,50,46,418.42,126,-36.0,3.0,-999.0
-1,-100,-100,-100,"0,0,0",0,0,-86,0,3,0,84,86,175,50,46,418.5,126,-36.0,-1.0,-1003.0
-1,-100,-100,-100,"0,0,0",0,0,-86,0,2,0,84,86,176,50,46,418.53,126,-49.0,0.0,-994.0
-1,-100,-100,-100,"0,0,0",0,0,-86,0,2,0,84,86,176,50,46,418.49,127,-31.0,-5.0,-1003.0
-1,-100,-100,-100,"0,0,0",0,0,-86,0,2,0,84,86,176,50,46,418.49,127,-31.0,-5.0,-1003.0
-1,-100,-100,-100,"0,0,0",0,0,-86,0,2,0,84,86,175,50,46,418.46,127,-22.0,-3.0,-988.0
-1,-100,-100,-100,"0,0,0",0,0,-86,0,1,0,84,86,176,50,46,418.42,127,-20.0,3.0,-985.0
-1,-100,-100,-100,"0,0,0",0,0,-86,0,1,0,84,86,175,50,46,418.51,127,-31.0,-12.0,-987.0
-1,-100,-100,-100,"0,0,0",0,0,-86,0,1,0,84,86,175,50,46,418.51,127,-31.0,-12.0,-987.0
-1,-100,-100,-100,"0,0,0",3,0,-86,0,1,0,84,86,174,50,46,418.5,127,-31.0,-9.0,-1008.0
-1,-100,-100,-100,"0,0,0",2,0,-86,0,0,0,84,86,174,50,46,418.46,127,-17.0,-11.0,-989.0
-1,-100,-100,-100,"0,0,0",1,1,-86,0,0,0,84,86,173,50,46,418.47,127,-16.0,-1.0,-998.0
-1,-100,-100,-100,"0,0,0",1,1,-86,0,0,0,84,86,173,50,46,418.47,127,-16.0,-1.0,-998.0
-1,-100,-100,-100,"0,0,0",0,1,-86,0,0,0,84,86,173,40,46,418.43,127,-7.0,-13.0,-988.0
-1,-100,-100,-100,"0,0,0",0,1,-86,0,0,0,84,86,171,40,46,418.47,127,-19.0,-3.0,-1017.0
-1,-100,-100,-100,"0,0,0",0,1,-86,0,0,0,84,86,171,40,46,418.43,127,-22.0,-7.0,-1029.0
-1,-100,-100,-100,"0,0,0",0,1,-86,0,0,0,84,86,171,40,46,418.43,127,-22.0,-7.0,-1029.0
-1,-100,-100,-100,"0,0,0",-2,0,-86,0,0,0,84,86,171,40,46,418.44,128,-12.0,-1.0,-1016.0
-1,-100,-100,-100,"0,0,0",-6,0,-86,0,0,0,84,86,171,40,46,418.44,128,-11.0,-5.0,-1003.0
-1,-100,-100,-100,"0,0,0",-7,0,-86,0,1,0,83,87,174,40,46,418.44,128,-27.0,-2.0,-1010.0
-1,-100,-100,-100,"0,0,0",-7,0,-86,0,1,0,83,87,174,40,46,418.44,128,-27.0,-2.0,-1010.0
-1,-100,-100,-100,"0,0,0",-7,0,-86,0,2,0,83,87,173,40,46,418.37,128,-6.0,10.0,-1001.0
-1,-100,-100,-100,"0,0,0",-7,0,-86,0,3,0,83,87,172,40,46,418.46,128,-66.0,-4.0,-1023.0
-1,-100,-100,-100,"0,0,0",-7,0,-86,0,4,0,83,87,173,40,46,418.41,128,-48.0,7.0,-1015.0
-1,-100,-100,-100,"0,0,0",-7,0,-86,0,5,0,83,87,173,40,46,418.42,128,-47.0,19.0,-976.0
-1,-100,-100,-100,"0,0,0",-7,0,-86,0,5,0,83,87,173,40,46,418.42,128,-47.0,19.0,-976.0
-1,-100,-100,-100,"0,0,0",-4,0,-86,0,6,0,83,87,172,40,46,418.36,128,-73.0,9.0,-1004.0
-1,-100,-100,-100,"0,0,0",-1,0,-86,0,6,0,83,87,172,40,46,418.44,128,-58.0,11.0,-990.0
-1,-100,-100,-100,"0,0,0",0,0,-86,0,5,0,83,87,173,40,46,418.44,128,-33.0,39.0,-963.0
-1,-100,-100,-100,"0,0,0",0,0,-86,0,5,0,83,87,173,40,46,418.44,128,-33.0,39.0,-963.0
-1,-100,-100,-100,"0,0,0",0,0,-85,0,5,0,83,87,173,40,46,418.37,129,-22.0,27.0,-987.0
-1,-100,-100,-100,"0,0,0",0,0,-85,-1,4,0,83,87,173,40,46,418.48,129,-19.0,36.0,-993.0
-1,-100,-100,-100,"0,0,0",0,0,-85,-1,4,0,83,87,173,40,46,418.48,129,-19.0,36.0,-993.0
-1,-100,-100,-100,"0,0,0",1,-2,-86,-1,4,0,84,86,172,40,46,418.36,129,-41.0,38.0,-998.0
-1,-100,-100,-100,"0,0,0",6,-1,-86,-1,3,0,84,86,157,40,46,418.28,129,-31.0,19.0,-1030.0
-1,-100,-100,-100,"0,0,0",7,-1,-86,0,2,0,84,86,152,40,46,418.39,129,-26.0,24.0,-1027.0
-1,-100,-100,-100,"0,0,0",7,-1,-86,0,0,0,84,86,153,40,46,418.33,129,-14.0,16.0,-1014.0
-1,-100,-100,-100,"0,0,0",7,-1,-86,0,0,0,84,86,153,40,46,418.33,129,-14.0,16.0,-1014.0
-1,-100,-100,-100,"0,0,0",7,-1,-86,0,0,0,84,86,159,40,46,418.38,129,-32.0,15.0,-994.0
-1,-100,-100,-100,"0,0,0",7,-1,-86,0,-2,0,84,86,168,40,46,418.42,129,21.0,8.0,-1014.0
-1,-100,-100,-100,"0,0,0",7,0,-86,0,-3,0,84,86,173,40,46,418.5,129,5.0,15.0,-1022.0
-1,-100,-100,-100,"0,0,0",7,0,-86,0,-3,0,84,86,173,40,46,418.5,129,5.0,15.0,-1022.0
-1,-100,-100,-100,"0,0,0",7,-1,-86,0,-6,0,84,86,176,50,46,418.46,130,23.0,-2.0,-987.0
-1,-100,-100,-100,"0,0,0",7,-1,-86,0,-6,0,84,86,176,50,46,418.46,130,23.0,-2.0,-987.0
-1,-100,-100,-100,"0,0,0",7,-1,-86,0,-7,0,84,86,172,50,46,418.49,130,12.0,4.0,-1002.0
-1,-100,-100,-100,"0,0,0",7,-1,-86,0,-7,0,84,86,172,50,46,418.49,130,12.0,4.0,-1002.0
-1,-100,-100,-100,"0,0,0",3,0,-86,0,-8,0,84,85,172,50,46,418.52,130,54.0,-39.0,-998.0
-1,-100,-100,-100,"0,0,0",0,0,-86,1,-8,0,84,85,171,50,46,418.47,130,39.0,-3.0,-967.0
-1,-100,-100,-100,"0,0,0",-1,1,-86,1,-7,0,84,85,169,40,46,418.38,130,36.0,-13.0,-1007.0
-1,-100,-100,-100,"0,0,0",-1,1,-86,1,-7,0,84,85,169,40,46,418.38,130,36.0,-13.0,-1007.0
-1,-100,-100,-100,"0,0,0",-2,1,-86,0,-7,0,84,85,170,40,46,418.44,130,21.0,-27.0,-1018.0
-1,-100,-100,-100,"0,0,0",-2,1,-86,0,-6,0,84,85,170,40,46,418.38,130,25.0,3.0,-1002.0
-1,-100,-100,-100,"0,0,0",-2,1,-87,0,-5,0,84,85,170,40,46,418.42,130,10.0,-12.0,-1013.0
-1,-100,-100,-100,"0,0,0",-2,1,-87,0,-5,0,84,85,170,40,46,418.42,130,10.0,-12.0,-1013.0
-1,-100,-100,-100,"0,0,0",-6,1,-87,0,-4,0,84,85,171,40,46,418.38,130,9.0,-23.0,-991.0
-1,-100,-100,-100,"0,0,0",-7,1,-87,0,-3,0,84,85,170,40,46,418.38,130,18.0,-6.0,-1014.0
-1,-100,-100,-100,"0,0,0",-4,1,-87,0,-2,0,84,85,169,40,46,418.36,131,2.0,-14.0,-1017.0
-1,-100,-100,-100,"0,0,0",-2,1,-87,0,-1,0,84,85,168,40,46,418.35,131,-1.0,-19.0,-1013.0
-1,-100,-100,-100,"0,0,0",-1,1,-85,0,0,0,83,86,169,40,46,418.34,131,-9.0,-6.0,-1002.0
-1,-100,-100,-100,"0,0,0",-1,1,-85,0,0,0,83,86,169,40,46,418.34,131,-9.0,-6.0,-1002.0
-1,-100,-100,-100,"0,0,0",-1,0,-82,0,0,0,83,86,169,40,46,418.4,131,-22.0,-5.0,-1013.0
-1,-100,-100,-100,"0,0,0",0,0,-82,0,0,0,83,86,169,40,46,418.35,131,-14.0,-12.0,-1014.0
-1,-100,-100,-100,"0,0,0",-1,0,-82,0,0,0,83,86,169,40,46,418.31,131,-6.0,-8.0,-1011.0
-1,-100,-100,-100,"0,0,0",-1,0,-82,0,0,0,83,86,169,40,46,418.31,131,-6.0,-8.0,-1011.0
-1,-100,-100,-100,"0,0,0",-1,1,-82,0,0,0,83,86,170,40,46,418.34,131,-4.0,-8.0,-998.0
-1,-100,-100,-100,"0,0,0",-1,1,-82,0,0,0,83,86,170,40,46,418.32,131,-16.0,-9.0,-1003.0
-1,-100,-100,-100,"0,0,0",-1,1,-81,0,0,0,83,86,170,40,46,418.33,131,-10.0,-18.0,-978.0
-1,-100,-100,-100,"0,0,0",-1,1,-81,0,0,0,83,86,170,40,46,418.33,131,-10.0,-18.0,-978.0
-1,-100,-100,-100,"0,0,0",-1,1,-77,0,0,0,83,86,170,40,46,418.39,131,-49.0,14.0,-977.0
-1,-100,-100,-100,"0,0,0",0,1,-77,0,0,0,83,86,170,40,46,418.39,132,-27.0,-17.0,-1006.0
-1,-100,-100,-100,"0,0,0",-1,1,-77,0,0,0,83,86,170,40,46,418.43,132,-24.0,-12.0,-1002.0
-1,-100,-100,-100,"0,0,0",-1,1,-77,0,0,0,83,86,170,40,46,418.43,132,-24.0,-12.0,-1002.0
-1,-100,-100,-100,"0,0,0",-1,1,-77,0,0,0,84,85,171,40,46,418.37,132,-26.0,-18.0,-994.0
-1,-100,-100,-100,"0,0,0",-1,1,-77,0,0,0,84,85,171,40,46,418.38,132,-6.0,-20.0,-993.0
-1,-100,-100,-100,"0,0,0",-1,1,-77,0,0,0,84,85,171,40,46,418.49,132,-3.0,-17.0,-988.0
-1,-100,-100,-100,"0,0,0",-1,1,-77,0,0,0,84,85,171,40,46,418.49,132,-3.0,-17.0,-988.0
-1,-100,-100,-100,"0,0,0",-1,1,-77,0,0,0,84,85,172,40,46,418.43,132,10.0,-16.0,-992.0
-1,-100,-100,-100,"0,0,0",0,1,-77,0,0,0,84,85,173,40,46,418.46,132,-28.0,-16.0,-988.0
-1,-100,-100,-100,"0,0,0",0,1,-77,0,0,0,84,85,172,40,46,418.5,132,-17.0,-2.0,-1005.0
-1,-100,-100,-100,"0,0,0",0,1,-77,0,0,0,84,85,172,40,46,418.5,132,-17.0,-2.0,-1005.0
-1,-100,-100,-100,"0,0,0",0,1,-77,0,0,0,84,85,171,40,46,418.48,132,-40.0,-18.0,-1006.0
-1,-100,-100,-100,"0,0,0",0,1,-76,0,0,0,84,85,174,40,46,418.48,132,0.0,-7.0,-981.0
-1,-100,-100,-100,"0,0,0",0,1,-76,0,0,0,84,85,172,40,46,418.46,133,-21.0,-31.0,-993.0
-1,-100,-100,-100,"0,0,0",0,1,-76,0,0,0,84,85,172,40,46,418.46,133,-21.0,-31.0,-993.0
-1,-100,-100,-100,"0,0,0",0,1,-76,0,0,0,84,85,173,40,46,418.49,133,-39.0,-19.0,-987.0
-1,-100,-100,-100,"0,0,0",0,1,-76,0,0,0,83,85,173,40,46,418.5,133,-10.0,-25.0,-1022.0
-1,-100,-100,-100,"0,0,0",0,1,-76,0,0,0,83,85,172,40,46,418.54,133,-38.0,-21.0,-993.0
-1,-100,-100,-100,"0,0,0",0,1,-76,0,0,0,83,85,172,40,46,418.54,133,-38.0,-21.0,-993.0
-1,-100,-100,-100,"0,0,0",-1,1,-77,0,0,0,83,85,173,40,46,418.4,133,-16.0,-3.0,-1001.0
-1,-100,-100,-100,"0,0,0",0,0,-77,0,0,0,83,85,173,40,46,418.45,133,-21.0,-15.0,-994.0
-1,-100,-100,-100,"0,0,0",-1,0,-77,0,0,0,83,85,172,40,46,418.46,133,-13.0,-17.0,-992.0
-1,-100,-100,-100,"0,0,0",-1,0,-77,0,0,0,83,85,173,50,46,418.41,133,-11.0,-19.0,-999.0
-1,-100,-100,-100,"0,0,0",-1,0,-77,0,0,0,83,85,173,50,46,418.41,133,-11.0,-19.0,-999.0
-1,-100,-100,-100,"0,0,0",0,0,-77,0,0,0,83,85,174,50,46,418.45,134,-18.0,-23.0,-945.0
-1,-100,-100,-100,"0,0,0",0,0,-77,0,0,0,83,85,174,50,46,418.45,134,-18.0,-23.0,-945.0
-1,-100,-100,-100,"0,0,0",0,1,-77,0,0,-1,83,85,172,40,46,418.5,134,-14.0,-17.0,-878.0
-1,-100,-100,-100,"0,0,0",0,1,-77,0,0,-1,83,85,171,40,46,418.42,134,-28.0,-11.0,-1016.0
-1,-100,-100,-100,"0,0,0",-1,0,-77,0,0,-1,83,84,169,40,46,418.44,134,-14.0,-20.0,-952.0
-1,-100,-100,-100,"0,0,0",-1,0,-77,0,0,-1,83,84,169,40,46,418.44,134,-14.0,-20.0,-952.0
-1,-100,-100,-100,"0,0,0",0,0,-77,0,0,0,83,84,168,40,46,418.43,134,-29.0,-15.0,-1043.0
-1,-100,-100,-100,"0,0,0",0,1,-77,0,0,0,83,84,167,40,46,418.46,134,-8.0,-14.0,-1018.0
-1,-100,-100,-100,"0,0,0",0,1,-77,0,0,0,83,84,168,40,46,418.3,134,-18.0,-31.0,-1034.0
-1,-100,-100,-100,"0,0,0",0,1,-77,0,0,0,83,84,168,40,46,418.3,134,-18.0,-31.0,-1034.0
-1,-100,-100,-100,"0,0,0",0,1,-77,0,0,-1,83,84,166,40,46,418.29,134,2.0,-19.0,-1010.0
-1,-100,-100,-100,"0,0,0",0,1,-77,0,0,-2,83,84,164,40,46,418.27,134,1.0,-14.0,-899.0
-1,-100,-100,-100,"0,0,0",0,1,-77,0,0,-3,83,84,160,30,46,418.23,134,-15.0,-34.0,-920.0
-1,-100,-100,-100,"0,0,0",0,1,-77,0,0,-3,83,84,160,30,46,418.23,134,-15.0,-34.0,-920.0
-1,-100,-100,-100,"0,0,0",0,1,-77,0,0,-3,83,84,156,30,46,418.18,135,3.0,-14.0,-910.0
-1,-100,-100,-100,"0,0,0",0,1,-77,0,0,-4,83,84,153,30,46,418.18,135,5.0,-8.0,-916.0
-1,-100,-100,-100,"0,0,0",0,1,-76,0,0,-4,83,84,148,20,46,418.17,135,1.0,-26.0,-944.0
-1,-100,-100,-100,"0,0,0",0,1,-76,0,0,-4,83,84,148,20,46,418.17,135,1.0,-26.0,-944.0
-1,-100,-100,-100,"0,0,0",0,1,-76,0,0,-4,83,86,142,20,46,418.08,135,-4.0,-19.0,-991.0
-1,-100,-100,-100,"0,0,0",0,1,-77,0,0,-5,83,86,138,10,46,418.09,135,-15.0,-25.0,-1016.0
-1,-100,-100,-100,"0,0,0",0,1,-77,0,0,-4,83,86,132,10,46,418.13,135,-9.0,-24.0,-1105.0
-1,-100,-100,-100,"0,0,0",0,1,-77,0,0,-4,83,86,132,10,46,418.13,135,-9.0,-24.0,-1105.0
-1,-100,-100,-100,"0,0,0",0,1,-77,0,0,-3,83,86,126,0,46,418.06,135,-15.0,-38.0,-1127.0
-1,-100,-100,-100,"0,0,0",0,1,-77,0,0,-2,83,86,123,0,46,417.96,135,16.0,-24.0,-1070.0
-1,-100,-100,-100,"0,0,0",0,1,-77,0,0,-1,83,86,120,0,46,418.06,135,-3.0,-9.0,-1086.0
-1,-100,-100,-100,"0,0,0",0,1,-77,0,0,-1,83,86,120,0,46,418.06,135,-3.0,-9.0,-1086.0
-1,-100,-100,-100,"0,0,0",0,1,-77,0,0,-1,83,86,118,0,46,417.97,135,-6.0,-15.0,-1060.0
-1,-100,-100,-100,"0,0,0",0,1,-77,0,0,0,83,86,118,0,46,417.84,136,-5.0,-20.0,-1034.0
-1,-100,-100,-100,"0,0,0",0,1,-77,0,0,0,83,86,116,0,46,417.96,136,-22.0,-22.0,-1042.0
-1,-100,-100,-100,"0,0,0",0,1,-77,0,0,0,83,86,116,0,46,417.96,136,-22.0,-22.0,-1042.0
-1,-100,-100,-100,"0,0,0",0,0,-77,0,0,0,83,86,117,0,46,417.89,136,-4.0,-25.0,-1009.0
-1,-100,-100,-100,"0,0,0",0,0,-77,0,0,0,83,85,116,0,46,417.97,136,-5.0,-21.0,-994.0
-1,-100,-100,-100,"0,0,0",0,1,-77,0,0,0,83,85,116,0,46,417.97,136,-14.0,-18.0,-1016.0
-1,-100,-100,-100,"0,0,0",0,0,-77,0,0,0,83,85,117,0,46,417.94,136,-14.0,-25.0,-1014.0
-1,-100,-100,-100,"0,0,0",0,0,-77,0,0,0,83,85,117,0,46,417.94,136,-14.0,-25.0,-1014.0
-1,-100,-100,-100,"0,0,0",0,1,-77,0,0,0,83,85,116,0,46,417.93,136,-9.0,-20.0,-1002.0
-1,-100,-100,-100,"0,0,0",0,1,-76,0,0,0,83,85,117,0,46,417.89,136,-2.0,-17.0,-997.0
-1,-100,-100,-100,"0,0,0",0,0,-76,0,0,0,83,85,117,0,46,417.95,136,-21.0,-17.0,-989.0
-1,-100,-100,-100,"0,0,0",0,0,-76,0,0,0,83,85,117,0,46,417.95,136,-21.0,-17.0,-989.0
-1,-100,-100,-100,"0,0,0",0,0,-76,0,0,0,83,85,117,0,46,417.91,136,-8.0,-22.0,-1013.0
-1,-100,-100,-100,"0,0,0",0,1,-76,0,0,0,83,85,117,0,46,417.96,137,3.0,-14.0,-994.0
-1,-100,-100,-100,"0,0,0",0,0,-76,0,0,0,83,85,116,0,46,417.84,137,-1.0,-20.0,-1003.0
-1,-100,-100,-100,"0,0,0",0,0,-76,0,0,0,83,85,116,0,46,417.84,137,-1.0,-20.0,-1003.0
-1,-100,-100,-100,"0,0,0",0,0,-77,0,0,0,83,85,117,0,46,417.95,137,-10.0,-11.0,-999.0
-1,-100,-100,-100,"0,0,0",0,0,-77,0,0,0,84,85,117,0,46,417.94,137,-17.0,-28.0,-1017.0
-1,-100,-100,-100,"0,0,0",0,1,-77,0,0,0,84,85,117,0,46,417.93,137,-3.0,-17.0,-996.0
-1,-100,-100,-100,"0,0,0",0,1,-77,0,0,0,84,85,117,0,46,417.93,137,-3.0,-17.0,-996.0
-1,-100,-100,-100,"0,0,0",0,1,-77,0,0,0,84,85,117,0,46,417.97,137,1.0,-15.0,-981.0
-1,-100,-100,-100,"0,0,0",0,1,-77,0,0,0,84,85,117,0,46,417.92,137,-12.0,-19.0,-998.0
-1,-100,-100,-100,"0,0,0",0,1,-77,0,0,0,84,85,117,0,46,417.95,137,-3.0,-18.0,-1000.0
-1,-100,-100,-100,"0,0,0",0,1,-77,0,0,0,84,85,117,0,46,417.98,137,-24.0,-16.0,-995.0
-1,-100,-100,-100,"0,0,0",0,1,-77,0,0,0,84,85,117,0,46,418.06,137,-20.0,-25.0,-1012.0
-1,-100,-100,-100,"0,0,0",0,1,-77,0,0,0,84,85,117,0,46,418.06,137,-20.0,-25.0,-1012.0
-1,-100,-100,-100,"0,0,0",0,0,-77,0,0,0,84,85,118,0,46,417.97,138,-14.0,-22.0,-989.0
-1,-100,-100,-100,"0,0,0",0,0,-76,0,0,0,84,85,117,0,46,417.96,138,6.0,-20.0,-987.0
-1,-100,-100,-100,"0,0,0",0,1,-76,0,0,0,84,85,118,0,46,417.97,138,-1.0,-18.0,-990.0
-1,-100,-100,-100,"0,0,0",0,1,-76,0,0,0,84,85,118,0,46,417.97,138,-1.0,-18.0,-990.0
-1,-100,-100,-100,"0,0,0",0,0,-76,0,0,0,83,85,118,0,46,417.89,138,-29.0,-14.0,-1004.0
-1,-100,-100,-100,"0,0,0",0,0,-76,0,0,0,83,85,118,0,46,417.93,138,6.0,-10.0,-1003.0
-1,-100,-100,-100,"0,0,0",0,0,-76,0,0,0,83,85,118,0,46,417.92,138,-28.0,0.0,-996.0
-1,-100,-100,-100,"0,0,0",0,0,-76,0,0,0,83,85,118,0,46,417.92,138,-28.0,0.0,-996.0
-1,-100,-100,-100,"0,0,0",0,0,-76,0,0,0,83,85,118,0,46,417.91,138,-23.0,-23.0,-1014.0
-1,-100,-100,-100,"0,0,0",0,0,-76,0,0,0,83,85,119,0,46,417.99,138,2.0,-19.0,-985.0
-1,-100,-100,-100,"0,0,0",0,0,-76,0,0,0,83,85,118,0,46,417.95,138,1.0,-5.0,-992.0
-1,-100,-100,-100,"0,0,0",0,0,-76,0,0,0,83,85,118,0,46,417.95,138,1.0,-5.0,-992.0
-1,-100,-100,-100,"0,0,0",0,0,-76,0,0,0,83,85,118,0,46,417.91,138,3.0,-11.0,-989.0
-1,-100,-100,-100,"0,0,0",0,0,-77,0,0,0,83,85,119,0,46,417.97,139,-14.0,-14.0,-1005.0
-1,-100,-100,-100,"0,0,0",0,0,-77,0,0,0,83,85,119,0,46,417.92,139,-10.0,-13.0,-998.0
-1,-100,-100,-100,"0,0,0",0,0,-77,0,0,0,83,85,119,0,46,417.92,139,-10.0,-13.0,-998.0
-1,-100,-100,-100,"0,0,0",0,0,-77,0,0,0,83,85,118,0,46,418.01,139,-25.0,-23.0,-1006.0
-1,-100,-100,-100,"0,0,0",0,0,-76,0,0,0,82,84,119,0,45,417.92,139,-24.0,-19.0,-985.0
-1,-100,-100,-100,"0,0,0",-2,0,-76,0,0,0,82,84,119,0,45,417.93,139,-23.0,-26.0,-1011.0
-1,-100,-100,-100,"0,0,0",-2,0,-76,0,0,0,82,84,119,0,45,417.93,139,-23.0,-26.0,-1011.0
-1,-100,-100,-100,"0,0,0",-5,0,-76,0,0,0,82,84,119,0,45,417.98,139,3.0,-1.0,-1015.0
-1,-100,-100,-100,"0,0,0",-6,1,-77,0,1,0,82,84,119,0,45,417.91,139,-35.0,-22.0,-1006.0
-1,-100,-100,-100,"0,0,0",-6,0,-77,0,2,0,82,84,120,0,45,417.93,139,-29.0,-6.0,-1008.0
-1,-100,-100,-100,"0,0,0",-6,0,-76,0,2,0,82,84,119,0,45,418.03,139,-26.0,-20.0,-1016.0
-1,-100,-100,-100,"0,0,0",-6,0,-76,0,2,0,82,84,119,0,45,418.03,139,-26.0,-20.0,-1016.0
-1,-100,-100,-100,"0,0,0",-6,0,-76,0,3,0,82,84,119,0,45,417.93,139,-53.0,-17.0,-1015.0
-1,-100,-100,-100,"0,0,0",-6,1,-76,0,4,0,82,84,120,0,45,417.94,140,-36.0,1.0,-1009.0
-1,-100,-100,-100,"0,0,0",-6,0,-76,-1,4,0,82,84,120,0,45,417.93,140,-36.0,13.0,-1006.0
-1,-100,-100,-100,"0,0,0",-6,0,-76,-1,4,0,82,84,120,0,45,417.93,140,-36.0,13.0,-1006.0
-1,-100,-100,-100,"0,0,0",-6,0,-77,-1,5,0,82,84,119,0,45,417.98,140,-55.0,-5.0,-987.0
-1,-100,-100,-100,"0,0,0",-6,0,-76,-1,5,0,82,85,119,0,45,417.87,140,-57.0,-10.0,-1005.0
-1,-100,-100,-100,"0,0,0",-6,0,-76,-1,6,0,82,85,119,0,45,417.95,140,-41.0,7.0,-1011.0
-1,-100,-100,-100,"0,0,0",-6,0,-76,-1,6,0,82,85,119,0,45,417.95,140,-41.0,7.0,-1011.0
-1,-100,-100,-100,"0,0,0",-6,0,-77,-1,6,0,82,85,120,0,45,417.88,140,-60.0,-2.0,-982.0
-1,-100,-100,-100,"0,0,0",-3,0,-76,-1,7,0,82,85,119,0,45,417.93,140,-65.0,1.0,-1000.0
-1,-100,-100,-100,"0,0,0",0,0,-76,-1,6,0,82,85,119,0,45,417.77,140,-62.0,11.0,-1003.0
-1,-100,-100,-100,"0,0,0",0,0,-76,-1,6,0,82,85,119,0,45,417.77,140,-62.0,11.0,-1003.0
-1,-100,-100,-100,"0,0,0",0,0,-76,-1,6,0,82,85,119,0,45,417.84,140,-29.0,16.0,-995.0
-1,-100,-100,-100,"0,0,0",0,0,-76,-2,5,0,82,85,119,0,45,417.91,140,-54.0,29.0,-981.0
-1,-100,-100,-100,"0,0,0",4,-1,-76,-1,4,0,82,85,119,0,45,417.82,141,-31.0,25.0,-1009.0
-1,-100,-100,-100,"0,0,0",4,-1,-76,-1,4,0,82,85,119,0,45,417.82,141,-31.0,25.0,-1009.0
-1,-100,-100,-100,"0,0,0",6,0,-76,-1,3,0,82,85,120,0,45,417.87,141,-44.0,45.0,-994.0
-1,-100,-100,-100,"0,0,0",6,0,-76,-1,2,0,82,85,118,0,45,417.86,141,-41.0,35.0,-1013.0
-1,-100,-100,-100,"0,0,0",6,-1,-76,-1,1,0,83,85,119,0,45,417.91,141,-27.0,36.0,-956.0
-1,-100,-100,-100,"0,0,0",6,-1,-76,-1,1,0,83,85,119,0,45,417.91,141,-27.0,36.0,-956.0
-1,-100,-100,-100,"0,0,0",6,-1,-77,-1,-1,0,83,85,118,0,45,417.93,141,-17.0,5.0,-1040.0
-1,-100,-100,-100,"0,0,0",6,-1,-77,-1,-1,0,83,85,118,0,45,417.93,141,-17.0,5.0,-1040.0
-1,-100,-100,-100,"0,0,0",6,-1,-77,0,-2,0,83,85,118,0,45,417.85,141,-12.0,6.0,-1032.0
-1,-100,-100,-100,"0,0,0",6,-1,-77,0,-3,0,83,85,118,0,45,417.96,141,20.0,0.0,-1006.0
-1,-100,-100,-100,"0,0,0",5,-1,-77,0,-4,0,83,85,119,0,45,417.86,141,-3.0,4.0,-1017.0
-1,-100,-100,-100,"0,0,0",5,-1,-77,0,-4,0,83,85,119,0,45,417.86,141,-3.0,4.0,-1017.0
-1,-100,-100,-100,"0,0,0",6,0,-77,0,-5,0,83,85,119,0,45,417.91,141,14.0,12.0,-987.0
-1,-100,-100,-100,"0,0,0",6,0,-77,1,-6,0,83,85,119,0,45,417.92,142,24.0,-2.0,-999.0
-1,-100,-100,-100,"0,0,0",5,0,-77,1,-6,0,83,85,120,0,45,417.9,142,12.0,-10.0,-1019.0
-1,-100,-100,-100,"0,0,0",5,0,-77,1,-6,0,83,85,120,0,45,417.9,142,12.0,-10.0,-1019.0
-1,-100,-100,-100,"0,0,0",4,0,-81,2,-7,0,83,85,118,0,45,418.03,142,24.0,-10.0,-1000.0
-1,-100,-100,-100,"0,0,0",0,1,-85,2,-7,0,82,84,118,0,45,417.98,142,51.0,-4.0,-981.0
-1,-100,-100,-100,"0,0,0",-1,1,-90,1,-6,0,82,84,118,0,45,418.08,142,38.0,-7.0,-1001.0
-1,-100,-100,-100,"0,0,0",-1,1,-90,1,-6,0,82,84,118,0,45,418.08,142,38.0,-7.0,-1001.0
-1,-100,-100,-100,"0,0,0",-1,1,-95,1,-6,0,82,84,118,0,45,418.07,142,50.0,-7.0,-1003.0
-1,-100,-100,-100,"0,0,0",-1,1,-99,1,-5,0,82,84,118,0,45,417.97,142,16.0,-18.0,-1023.0
-1,-100,-100,-100,"0,0,0",0,1,-104,1,-4,0,82,84,118,0,45,417.96,142,13.0,9.0,-1005.0
-1,-100,-100,-100,"0,0,0",0,1,-109,1,-4,0,82,84,119,0,45,417.93,142,4.0,0.0,-1022.0
-1,-100,-100,-100,"0,0,0",0,1,-109,1,-4,0,82,84,119,0,45,417.93,142,4.0,0.0,-1022.0
-1,-100,-100,-100,"0,0,0",0,1,-114,1,-3,0,82,84,119,0,45,418.03,142,42.0,0.0,-1000.0
-1,-100,-100,-100,"0,0,0",0,1,-119,1,-3,0,82,84,119,0,45,417.95,143,9.0,0.0,-1001.0
-1,-100,-100,-100,"0,0,0",0,1,-124,1,-3,0,82,84,120,0,45,417.99,143,35.0,5.0,-1003.0
-1,-100,-100,-100,"0,0,0",0,1,-124,1,-3,0,82,84,120,0,45,417.99,143,35.0,5.0,-1003.0
-1,-100,-100,-100,"0,0,0",0,1,-129,0,-2,0,82,84,120,0,45,417.96,143,32.0,2.0,-1001.0
-1,-100,-100,-100,"0,0,0",0,1,-134,0,-2,0,82,85,120,0,45,417.97,143,20.0,18.0,-996.0
-1,-100,-100,-100,"0,0,0",0,1,-139,0,-1,0,82,85,121,0,45,417.96,143,14.0,6.0,-994.0
-1,-100,-100,-100,"0,0,0",0,1,-139,0,-1,0,82,85,121,0,45,417.96,143,14.0,6.0,-994.0
-1,-100,-100,-100,"0,0,0",0,1,-144,0,-1,0,82,85,122,0,45,418.04,143,22.0,4.0,-986.0
-1,-100,-100,-100,"0,0,0",0,1,-149,0,-1,0,82,85,122,0,45,417.99,143,21.0,3.0,-987.0
-1,-100,-100,-100,"0,0,0",0,1,-154,0,-1,0,82,85,123,0,45,417.98,143,-5.0,13.0,-979.0
-1,-100,-100,-100,"0,0,0",0,1,-154,0,-1,0,82,85,123,0,45,417.98,143,-5.0,13.0,-979.0
-1,-100,-100,-100,"0,0,0",0,4,-159,0,0,0,82,85,123,0,45,418.04,143,30.0,-12.0,-984.0
-1,-100,-100,-100,"0,0,0",0,2,-160,0,0,0,82,85,124,0,45,418.01,143,10.0,-9.0,-992.0
-1,-100,-100,-100,"0,0,0",1,1,-161,0,0,0,82,85,123,0,45,418.01,144,9.0,-11.0,-997.0
-1,-100,-100,-100,"0,0,0",1,1,-161,0,0,0,82,85,123,0,45,418.01,144,9.0,-11.0,-997.0
-1,-100,-100,-100,"0,0,0",0,0,-162,0,0,0,82,85,124,0,45,418.04,144,14.0,-6.0,-1001.0
-1,-100,-100,-100,"0,0,0",0,0,-162,0,0,0,82,85,124,0,45,418.03,144,7.0,-7.0,-994.0
-1,-100,-100,-100,"0,0,0",0,0,-162,0,0,0,82,85,124,0,44,418.06,144,11.0,-3.0,-1011.0
-1,-100,-100,-100,"0,0,0",0,0,-162,0,0,0,82,85,124,0,44,418.06,144,11.0,-3.0,-1011.0
-1,-100,-100,-100,"0,0,0",0,0,-163,0,0,0,82,85,124,0,44,418.05,144,-5.0,-11.0,-993.0
-1,-100,-100,-100,"0,0,0",0,0,-163,0,0,0,82,85,124,0,44,418.03,144,22.0,-5.0,-992.0
-1,-100,-100,-100,"0,0,0",0,0,-163,0,0,0,82,85,124,0,44,417.98,144,27.0,-5.0,-994.0
-1,-100,-100,-100,"0,0,0",0,0,-164,0,0,0,82,85,124,0,44,417.98,144,19.0,-4.0,-1006.0
-1,-100,-100,-100,"0,0,0",0,0,-164,0,0,0,82,85,124,0,44,417.98,144,19.0,-4.0,-1006.0
-1,-100,-100,-100,"0,0,0",0,0,-164,0,0,0,82,85,123,0,44,418.0,144,19.0,0.0,-989.0
-1,-100,-100,-100,"0,0,0",0,0,-164,0,0,0,82,85,123,0,44,418.04,144,18.0,0.0,-994.0
-1,-100,-100,-100,"0,0,0",1,0,-164,0,0,0,82,85,123,0,44,417.98,145,3.0,6.0,-995.0
-1,-100,-100,-100,"0,0,0",1,0,-164,0,0,0,82,85,123,0,44,417.98,145,3.0,6.0,-995.0
-1,-100,-100,-100,"0,0,0",1,0,-164,0,0,0,82,85,123,0,44,417.96,145,4.0,0.0,-1009.0
-1,-100,-100,-100,"0,0,0",1,0,-164,0,0,0,82,85,123,0,44,418.0,145,23.0,5.0,-1002.0
-1,-100,-100,-100,"0,0,0",0,0,-164,0,0,0,83,84,123,0,44,417.96,145,34.0,5.0,-1002.0
-1,-100,-100,-100,"0,0,0",0,0,-164,0,0,0,83,84,123,0,44,417.96,145,34.0,5.0,-1002.0
-1,-100,-100,-100,"0,0,0",0,0,-164,0,0,0,83,84,123,0,44,417.93,145,19.0,3.0,-999.0
-1,-100,-100,-100,"0,0,0",1,-1,-164,0,0,0,83,84,123,0,44,417.97,145,15.0,1.0,-1005.0
-1,-100,-100,-100,"0,0,0",1,-1,-164,0,0,0,83,84,122,0,44,417.93,145,16.0,2.0,-995.0
-1,-100,-100,-100,"0,0,0",1,-1,-164,0,0,0,83,84,123,0,44,417.89,145,3.0,9.0,-995.0
-1,-100,-100,-100,"0,0,0",1,-1,-164,0,0,0,83,84,123,0,44,417.89,145,3.0,9.0,-995.0
-1,-100,-100,-100,"0,0,0",1,0,-167,0,0,0,83,84,123,0,44,417.93,145,18.0,21.0,-994.0
-1,-100,-100,-100,"0,0,0",1,0,-167,0,0,0,83,84,123,0,44,417.93,145,18.0,21.0,-994.0
-1,-100,-100,-100,"0,0,0",0,0,-172,0,0,0,83,84,123,0,44,418.02,146,1.0,14.0,-995.0
-1,-100,-100,-100,"0,0,0",0,0,-176,0,0,0,83,84,123,0,44,418.06,146,12.0,0.0,-1007.0
-1,-100,-100,-100,"0,0,0",0,-1,-178,0,0,0,83,84,123,0,44,418.0,146,1.0,5.0,-1011.0
-1,-100,-100,-100,"0,0,0",0,-1,-178,0,0,0,83,84,123,0,44,418.0,146,1.0,5.0,-1011.0
-1,-100,-100,-100,"0,0,0",0,-1,-179,0,0,0,83,85,123,0,44,417.94,146,28.0,11.0,-991.0
-1,-100,-100,-100,"0,0,0",0,-1,-179,0,0,0,83,85,122,0,44,417.96,146,7.0,10.0,-987.0
-1,-100,-100,-100,"0,0,0",0,-1,179,0,0,0,83,85,123,0,44,417.93,146,39.0,10.0,-1000.0
-1,-100,-100,-100,"0,0,0",0,-1,179,0,0,0,83,85,123,0,44,417.93,146,39.0,10.0,-1000.0
-1,-100,-100,-100,"0,0,0",0,-1,178,0,0,0,83,85,123,0,44,417.93,146,4.0,1.0,-989.0
-1,-100,-100,-100,"0,0,0",1,0,178,0,0,0,83,85,123,0,44,417.97,146,4.0,6.0,-1019.0
-1,-100,-100,-100,"0,0,0",0,0,178,0,0,0,83,85,124,0,44,417.98,146,19.0,8.0,-998.0
-1,-100,-100,-100,"0,0,0",0,0,178,0,0,0,83,85,124,0,44,417.98,146,19.0,8.0,-998.0
-1,-100,-100,-100,"0,0,0",0,0,177,0,0,0,83,85,124,0,44,417.95,146,13.0,14.0,-992.0
-1,-100,-100,-100,"0,0,0",0,0,177,0,0,0,83,85,124,0,44,417.89,147,8.0,8.0,-996.0
-1,-100,-100,-100,"0,0,0",0,0,177,0,0,0,83,85,124,0,44,417.89,147,24.0,12.0,-996.0
-1,-100,-100,-100,"0,0,0",0,0,177,0,0,0,83,85,124,0,44,417.89,147,24.0,12.0,-996.0
-1,-100,-100,-100,"0,0,0",0,0,177,0,0,0,83,85,124,0,44,417.93,147,9.0,13.0,-996.0
-1,-100,-100,-100,"0,0,0",0,0,176,0,0,0,82,85,124,0,44,417.99,147,13.0,5.0,-994.0
-1,-100,-100,-100,"0,0,0",0,0,172,0,0,0,82,85,124,0,44,417.94,147,5.0,12.0,-986.0
-1,-100,-100,-100,"0,0,0",0,0,172,0,0,0,82,85,124,0,44,417.94,147,5.0,12.0,-986.0
-1,-100,-100,-100,"0,0,0",0,0,168,0,0,0,82,85,124,0,44,418.0,147,4.0,-2.0,-994.0
-1,-100,-100,-100,"0,0,0",0,0,165,0,0,0,82,85,124,0,44,417.94,147,32.0,11.0,-992.0
-1,-100,-100,-100,"0,0,0",0,0,161,0,0,0,82,85,124,0,44,417.99,147,28.0,22.0,-981.0
-1,-100,-100,-100,"0,0,0",0,0,161,0,0,0,82,85,124,0,44,417.99,147,28.0,22.0,-981.0
-1,-100,-100,-100,"0,0,0",0,0,157,0,0,0,82,85,123,0,44,418.03,147,27.0,10.0,-994.0
-1,-100,-100,-100,"0,0,0",1,0,153,0,0,0,82,85,123,0,44,417.98,148,17.0,3.0,-996.0
-1,-100,-100,-100,"0,0,0",1,0,150,0,0,0,82,85,123,0,44,418.02,148,17.0,19.0,-988.0
-1,-100,-100,-100,"0,0,0",0,0,146,0,0,0,82,85,123,0,44,417.96,148,-3.0,15.0,-996.0
-1,-100,-100,-100,"0,0,0",0,0,146,0,0,0,82,85,123,0,44,417.96,148,-3.0,15.0,-996.0
-1,-100,-100,-100,"0,0,0",0,0,143,0,0,0,82,85,124,0,44,418.08,148,29.0,17.0,-1008.0
-1,-100,-100,-100,"0,0,0",0,0,139,0,0,0,82,85,123,0,43,417.96,148,14.0,0.0,-1010.0
-1,-100,-100,-100,"0,0,0",0,0,135,0,0,0,82,85,124,0,43,418.04,148,-6.0,17.0,-1019.0
-1,-100,-100,-100,"0,0,0",0,0,135,0,0,0,82,85,124,0,43,418.04,148,-6.0,17.0,-1019.0
-1,-100,-100,-100,"0,0,0",0,0,132,0,0,0,82,85,123,0,43,417.94,148,-4.0,8.0,-1021.0
-1,-100,-100,-100,"0,0,0",0,0,128,0,0,0,82,85,123,0,43,418.05,148,-8.0,8.0,-1000.0
-1,-100,-100,-100,"0,0,0",0,-1,125,0,0,0,82,85,124,0,43,418.06,148,-4.0,34.0,-1017.0
-1,-100,-100,-100,"0,0,0",0,-1,125,0,0,0,82,85,124,0,43,418.06,148,-4.0,34.0,-1017.0
-1,-100,-100,-100,"0,0,0",0,-1,125,0,0,0,82,85,123,0,43,417.97,148,17.0,28.0,-993.0
-1,-100,-100,-100,"0,0,0",0,-1,125,0,0,0,82,85,123,0,43,418.07,149,-1.0,5.0,-994.0
-1,-100,-100,-100,"0,0,0",0,-1,125,0,0,0,82,85,123,0,43,418.04,149,-1.0,23.0,-1012.0
-1,-100,-100,-100,"0,0,0",0,-1,125,0,0,0,82,85,123,0,43,418.07,149,7.0,30.0,-1012.0
-1,-100,-100,-100,"0,0,0",0,-1,123,0,0,0,82,85,123,0,43,417.96,149,21.0,27.0,-985.0
-1,-100,-100,-100,"0,0,0",0,-1,123,0,0,0,82,85,123,0,43,417.96,149,21.0,27.0,-985.0
-1,-100,-100,-100,"0,0,0",0,-1,119,0,0,0,82,84,123,0,43,418.06,149,-5.0,13.0,-994.0
-1,-100,-100,-100,"0,0,0",0,-1,114,0,0,0,82,84,123,0,43,417.95,149,3.0,15.0,-1008.0
-1,-100,-100,-100,"0,0,0",0,-1,110,0,0,0,82,84,123,0,43,418.02,149,-12.0,16.0,-998.0
-1,-100,-100,-100,"0,0,0",0,-1,110,0,0,0,82,84,123,0,43,418.02,149,-12.0,16.0,-998.0
-1,-100,-100,-100,"0,0,0",0,-1,106,0,0,0,82,84,123,0,43,418.0,149,5.0,20.0,-981.0
-1,-100,-100,-100,"0,0,0",0,-1,101,0,0,0,82,84,122,0,43,418.07,149,-18.0,26.0,-1001.0
-1,-100,-100,-100,"0,0,0",0,-1,97,0,0,0,82,84,122,0,43,418.03,149,15.0,39.0,-1011.0
-1,-100,-100,-100,"0,0,0",0,-1,97,0,0,0,82,84,122,0,43,418.03,149,15.0,39.0,-1011.0
-1,-100,-100,-100,"0,0,0",0,-1,93,0,0,0,82,84,122,0,43,418.02,150,-1.0,7.0,-1005.0
-1,-100,-100,-100,"0,0,0",0,-1,88,0,0,0,82,84,122,0,43,418.06,150,7.0,28.0,-996.0
-1,-100,-100,-100,"0,0,0",0,-1,84,0,0,0,82,84,122,0,43,418.03,150,-11.0,19.0,-1009.0
-1,-100,-100,-100,"0,0,0",0,-1,84,0,0,0,82,84,122,0,43,418.03,150,-11.0,19.0,-1009.0
-1,-100,-100,-100,"0,0,0",0,-1,80,0,0,0,82,84,122,0,43,417.98,150,7.0,24.0,-1003.0
-1,-100,-100,-100,"0,0,0",0,-1,76,0,0,0,82,84,122,0,43,418.06,150,-21.0,20.0,-1009.0
-1,-100,-100,-100,"0,0,0",0,-1,71,0,0,0,82,84,122,0,43,418.01,150,-3.0,19.0,-1001.0
-1,-100,-100,-100,"0,0,0",0,-1,67,0,0,0,82,84,122,0,43,417.97,150,9.0,37.0,-1011.0
-1,-100,-100,-100,"0,0,0",0,-1,67,0,0,0,82,84,122,0,43,417.97,150,9.0,37.0,-1011.0
-1,-100,-100,-100,"0,0,0",0,-1,63,0,0,0,82,84,123,0,43,417.97,150,-19.0,26.0,-993.0
-1,-100,-100,-100,"0,0,0",0,-1,59,0,0,0,82,84,124,0,43,417.99,150,-8.0,15.0,-991.0
-1,-100,-100,-100,"0,0,0",0,-1,55,0,0,0,82,84,123,0,43,417.94,150,-10.0,20.0,-1009.0
-1,-100,-100,-100,"0,0,0",0,-1,55,0,0,0,82,84,123,0,43,417.94,150,-10.0,20.0,-1009.0
-1,-100,-100,-100,"0,0,0",0,-1,50,0,0,0,82,84,123,0,43,417.97,151,-38.0,26.0,-1010.0
-1,-100,-100,-100,"0,0,0",0,-1,46,0,0,0,82,84,123,0,43,417.99,151,-25.0,10.0,-993.0
-1,-100,-100,-100,"0,0,0",0,0,41,0,0,0,82,84,123,0,43,417.95,151,-45.0,22.0,-1000.0
-1,-100,-100,-100,"0,0,0",0,0,41,0,0,0,82,84,123,0,43,417.95,151,-45.0,22.0,-1000.0
-1,-100,-100,-100,"0,0,0",-1,0,38,0,0,0,82,84,123,0,43,417.98,151,-20.0,20.0,-1012.0
-1,-100,-100,-100,"0,0,0",-1,-1,38,0,0,0,82,84,124,0,43,418.04,151,-40.0,17.0,-1000.0
-1,-100,-100,-100,"0,0,0",0,0,37,0,0,0,82,84,124,0,43,418.0,151,-26.0,18.0,-1000.0
-1,-100,-100,-100,"0,0,0",0,0,37,0,0,0,82,84,124,0,43,418.0,151,-26.0,18.0,-1000.0
-1,-100,-100,-100,"0,0,0",0,0,37,0,0,0,82,84,124,0,43,418.08,151,-6.0,37.0,-986.0
-1,-100,-100,-100,"0,0,0",-1,-1,36,0,0,0,82,84,124,0,43,417.96,151,-3.0,20.0,-1001.0
-1,-100,-100,-100,"0,0,0",-1,-1,36,0,0,0,82,84,124,0,43,417.99,151,-18.0,18.0,-991.0
-1,-100,-100,-100,"0,0,0",-1,-1,36,0,0,0,82,84,124,0,43,417.99,151,-18.0,18.0,-991.0
-1,-100,-100,-100,"0,0,0",-1,-1,35,0,0,0,82,84,124,0,43,417.98,151,-16.0,15.0,-997.0
-1,-100,-100,-100,"0,0,0",-1,0,34,0,0,0,82,84,124,0,43,417.93,152,-41.0,24.0,-989.0
-1,-100,-100,-100,"0,0,0",-1,0,34,0,0,0,82,84,125,0,43,417.96,152,-32.0,23.0,-1003.0
-1,-100,-100,-100,"0,0,0",-1,0,34,0,0,0,82,84,125,0,43,417.96,152,-32.0,23.0,-1003.0
-1,-100,-100,-100,"0,0,0",-1,0,33,0,0,0,82,84,124,0,43,417.95,152,6.0,29.0,-985.0
-1,-100,-100,-100,"0,0,0",-1,0,32,0,0,0,82,84,124,0,43,417.93,152,-27.0,9.0,-1010.0
-1,-100,-100,-100,"0,0,0",-1,0,32,0,0,0,81,83,125,0,43,417.93,152,-18.0,8.0,-1000.0
-1,-100,-100,-100,"0,0,0",-1,0,32,0,0,0,81,83,125,0,43,417.93,152,-18.0,8.0,-1000.0
-1,-100,-100,-100,"0,0,0",-1,0,31,0,0,0,81,83,124,0,43,417.97,152,-48.0,38.0,-994.0
-1,-100,-100,-100,"0,0,0",-1,0,27,0,0,0,81,83,124,0,43,417.93,152,-28.0,26.0,-1016.0
-1,-100,-100,-100,"0,0,0",-1,0,22,0,0,0,81,83,124,0,43,417.96,152,-26.0,21.0,-1002.0
-1,-100,-100,-100,"0,0,0",-1,0,22,0,0,0,81,83,124,0,43,417.96,152,-26.0,21.0,-1002.0
-1,-100,-100,-100,"0,0,0",-1,0,19,0,0,0,81,83,125,0,43,418.03,152,-12.0,-1.0,-1014.0
-1,-100,-100,-100,"0,0,0",-1,0,18,0,0,0,81,83,125,0,43,417.93,152,-61.0,14.0,-979.0
-1,-100,-100,-100,"0,0,0",-1,0,18,0,0,0,81,83,125,0,43,418.04,153,-10.0,17.0,-994.0
-1,-100,-100,-100,"0,0,0",-1,0,18,0,0,0,81,83,125,0,43,418.04,153,-10.0,17.0,-994.0
-1,-100,-100,-100,"0,0,0",-1,0,18,0,0,0,81,83,124,0,43,418.08,153,-16.0,25.0,-992.0
-1,-100,-100,-100,"0,0,0",-1,-1,18,0,0,0,81,83,125,0,43,418.01,153,-34.0,15.0,-997.0
-1,-100,-100,-100,"0,0,0",-1,-1,18,0,0,0,81,83,125,0,42,418.05,153,-20.0,25.0,-993.0
-1,-100,-100,-100,"0,0,0",-1,-1,18,0,0,0,82,83,125,0,42,418.04,153,-17.0,10.0,-1002.0
-1,-100,-100,-100,"0,0,0",-1,-1,18,0,0,0,82,83,125,0,42,418.04,153,-17.0,10.0,-1002.0
-1,-100,-100,-100,"0,0,0",-1,0,18,0,0,0,82,83,124,0,42,418.0,153,-14.0,12.0,-1001.0
-1,-100,-100,-100,"0,0,0",-1,0,20,0,0,0,82,83,125,0,42,417.97,153,-5.0,10.0,-989.0
-1,-100,-100,-100,"0,0,0",-1,-1,24,0,0,0,82,83,124,0,42,418.06,153,6.0,23.0,-988.0
-1,-100,-100,-100,"0,0,0",0,-1,26,0,0,0,82,83,124,0,42,418.07,153,-20.0,23.0,-998.0
-1,-100,-100,-100,"0,0,0",-1,-1,26,0,0,0,82,83,124,0,42,417.98,153,-8.0,19.0,-1005.0
-1,-100,-100,-100,"0,0,0",-1,-1,26,0,0,0,82,83,124,0,42,417.98,153,-8.0,19.0,-1005.0
-1,-100,-100,-100,"0,0,0",-1,-1,27,0,0,0,82,83,125,0,42,417.99,154,-22.0,46.0,-996.0
-1,-100,-100,-100,"0,0,0",-1,-1,27,0,0,0,82,83,125,0,42,417.96,154,-23.0,18.0,-986.0
-1,-100,-100,-100,"0,0,0",-1,-1,28,0,0,0,82,83,125,0,42,418.06,154,-14.0,30.0,-1002.0
-1,-100,-100,-100,"0,0,0",-1,-1,28,0,0,0,82,83,125,0,42,418.06,154,-14.0,30.0,-1002.0
-1,-100,-100,-100,"0,0,0",0,-1,29,0,0,0,82,83,125,0,42,417.98,154,-22.0,16.0,-994.0
-1,-100,-100,-100,"0,0,0",0,-1,29,0,0,0,82,83,126,0,42,418.05,154,-23.0,8.0,-985.0
-1,-100,-100,-100,"0,0,0",-1,-1,30,0,0,0,82,83,125,0,42,418.07,154,-40.0,15.0,-996.0
-1,-100,-100,-100,"0,0,0",-1,-1,30,0,0,0,82,83,125,0,42,418.07,154,-40.0,15.0,-996.0
-1,-100,-100,-100,"0,0,0",-1,0,30,0,0,0,82,83,125,0,42,418.07,154,-42.0,20.0,-981.0
-1,-100,-100,-100,"0,0,0",0,0,30,0,0,0,82,83,126,0,42,418.08,154,-18.0,24.0,-994.0
-1,-100,-100,-100,"0,0,0",0,0,31,0,0,0,82,83,125,0,42,418.07,154,-14.0,28.0,-988.0
-1,-100,-100,-100,"0,0,0",0,0,31,0,0,0,82,83,125,0,42,418.07,154,-14.0,28.0,-988.0
-1,-100,-100,-100,"0,0,0",0,0,31,0,0,0,82,83,126,0,42,418.08,154,-7.0,22.0,-969.0
-1,-100,-100,-100,"0,0,0",0,0,31,0,0,0,82,83,126,0,42,418.0,155,-32.0,44.0,-976.0
-1,-100,-100,-100,"0,0,0",0,-1,31,0,0,0,82,83,125,0,42,417.98,155,-21.0,29.0,-983.0
-1,-100,-100,-100,"0,0,0",0,-1,31,0,0,0,82,83,125,0,42,417.98,155,-21.0,29.0,-983.0
-1,-100,-100,-100,"0,0,0",0,-1,31,0,0,0,82,83,126,0,42,418.04,155,-28.0,21.0,-1000.0
-1,-100,-100,-100,"0,0,0",0,-1,31,0,0,0,82,83,126,0,42,418.01,155,-10.0,24.0,-1025.0
-1,-100,-100,-100,"0,0,0",0,-1,31,0,0,0,82,83,126,0,42,417.99,155,-6.0,31.0,-974.0
-1,-100,-100,-100,"0,0,0",0,-1,31,0,0,0,82,83,126,0,42,417.99,155,-6.0,31.0,-974.0
-1,-100,-100,-100,"0,0,0",0,-1,30,0,0,0,82,83,125,0,42,418.02,155,-40.0,23.0,-992.0
-1,-100,-100,-100,"0,0,0",-1,-1,30,0,0,0,82,83,125,0,42,418.06,155,-27.0,11.0,-1004.0
-1,-100,-100,-100,"0,0,0",0,-1,30,0,0,0,82,83,125,0,42,418.0,155,-19.0,21.0,-988.0
-1,-100,-100,-100,"0,0,0",0,-1,30,0,0,0,82,83,125,0,42,418.0,155,-19.0,21.0,-988.0
-1,-100,-100,-100,"0,0,0",0,-1,30,0,0,0,82,83,125,0,42,418.02,155,-7.0,14.0,-997.0
-1,-100,-100,-100,"0,0,0",0,0,30,0,0,0,82,83,126,0,42,417.98,155,-24.0,16.0,-1013.0
-1,-100,-100,-100,"0,0,0",0,0,30,0,0,0,82,83,125,0,42,418.02,156,-31.0,14.0,-1071.0
-1,-100,-100,-100,"0,0,0",0,0,30,0,0,0,82,83,125,0,42,418.02,156,-31.0,14.0,-1071.0
-1,-100,-100,-100,"0,0,0",0,0,30,0,0,0,82,83,125,0,42,418.03,156,-1.0,28.0,-1115.0
-1,-100,-100,-100,"0,0,0",0,0,30,0,0,1,82,83,127,0,42,418.02,156,-21.0,19.0,-1114.0
-1,-100,-100,-100,"0,0,0",0,-1,31,0,0,2,82,83,129,0,42,418.03,156,-30.0,15.0,-1090.0
-1,-100,-100,-100,"0,0,0",0,-1,31,0,0,2,82,83,129,0,42,418.03,156,-30.0,15.0,-1090.0
-1,-100,-100,-100,"0,0,0",0,0,31,0,0,3,81,83,133,0,42,418.13,156,-31.0,19.0,-1060.0
-1,-100,-100,-100,"0,0,0",0,0,31,0,0,4,81,83,138,0,42,418.11,156,-40.0,16.0,-917.0
-1,-100,-100,-100,"0,0,0",0,-1,31,0,0,3,81,83,142,10,42,418.16,156,-9.0,20.0,-900.0
-1,-100,-100,-100,"0,0,0",0,-1,31,0,0,2,81,83,145,10,42,418.15,156,-9.0,13.0,-919.0
-1,-100,-100,-100,"0,0,0",0,-1,31,0,0,1,81,83,147,10,42,418.2,156,-23.0,9.0,-938.0
-1,-100,-100,-100,"0,0,0",0,-1,31,0,0,1,81,83,147,10,42,418.2,156,-23.0,9.0,-938.0
-1,-100,-100,-100,"0,0,0",0,0,31,0,0,1,81,83,149,20,42,418.21,156,-15.0,3.0,-945.0
-1,-100,-100,-100,"0,0,0",0,0,31,0,0,0,81,83,150,20,42,418.3,157,-6.0,4.0,-962.0
-1,-100,-100,-100,"0,0,0",0,0,31,0,0,0,81,83,150,20,42,418.29,157,2.0,15.0,-1030.0
-1,-100,-100,-100,"0,0,0",0,0,31,0,0,0,81,83,150,20,42,418.29,157,2.0,15.0,-1030.0
-1,-100,-100,-100,"0,0,0",0,0,31,0,0,0,81,83,151,20,42,418.33,157,-35.0,10.0,-1112.0
-1,-100,-100,-100,"0,0,0",0,0,31,0,0,1,81,83,153,20,42,418.22,157,-20.0,13.0,-1095.0
-1,-100,-100,-100,"0,0,0",0,0,31,0,0,2,81,83,158,20,42,418.33,157,-17.0,5.0,-1051.0
-1,-100,-100,-100,"0,0,0",0,0,31,0,0,2,81,83,158,20,42,418.33,157,-17.0,5.0,-1051.0
-1,-100,-100,-100,"0,0,0",0,0,31,0,0,3,81,83,161,30,42,418.4,157,-28.0,23.0,-1051.0
-1,-100,-100,-100,"0,0,0",0,0,31,0,0,3,81,83,165,30,42,418.36,157,-7.0,2.0,-922.0
-1,-100,-100,-100,"0,0,0",0,0,31,0,0,3,81,83,168,30,42,418.36,157,-10.0,7.0,-915.0
-1,-100,-100,-100,"0,0,0",0,0,31,0,0,3,81,83,168,30,42,418.36,157,-10.0,7.0,-915.0
-1,-100,-100,-100,"0,0,0",-1,0,31,0,0,2,81,83,170,40,42,418.4,157,-27.0,3.0,-943.0
-1,-100,-100,-100,"0,0,0",-1,0,31,0,0,1,81,83,173,40,42,418.46,157,-28.0,7.0,-940.0
-1,-100,-100,-100,"0,0,0",-1,0,31,0,0,1,81,83,173,40,42,418.36,158,-15.0,20.0,-938.0
-1,-100,-100,-100,"0,0,0",-1,0,31,0,0,1,81,83,173,40,42,418.36,158,-15.0,20.0,-938.0
-1,-100,-100,-100,"0,0,0",-1,0,31,0,0,0,81,83,174,40,42,418.48,158,-21.0,9.0,-966.0
-1,-100,-100,-100,"0,0,0",-1,0,31,0,0,0,81,83,175,40,42,418.35,158,-34.0,14.0,-981.0
-1,-100,-100,-100,"0,0,0",-1,0,31,0,0,0,81,83,174,40,41,418.5,158,-38.0,19.0,-977.0
-1,-100,-100,-100,"0,0,0",-1,0,31,0,0,0,81,83,174,40,41,418.5,158,-38.0,19.0,-977.0
-1,-100,-100,-100,"0,0,0",-1,0,31,0,0,0,81,83,175,40,41,418.42,158,-31.0,7.0,-1001.0
-1,-100,-100,-100,"0,0,0",-1,0,31,0,0,0,81,83,173,40,41,418.47,158,-27.0,16.0,-1092.0
-1,-100,-100,-100,"0,0,0",-1,0,31,0,0,0,81,83,175,40,41,418.37,158,-48.0,21.0,-1113.0
-1,-100,-100,-100,"0,0,0",-1,0,31,0,0,1,81,83,177,40,41,418.48,158,-29.0,16.0,-971.0
-1,-100,-100,-100,"0,0,0",-1,0,31,0,0,1,81,83,177,40,41,418.48,158,-29.0,16.0,-971.0
-1,-100,-100,-100,"0,0,0",-1,0,31,0,0,1,81,83,180,50,41,418.51,158,-29.0,9.0,-964.0
-1,-100,-100,-100,"0,0,0",-1,0,31,0,0,1,81,83,181,50,41,418.44,158,-46.0,12.0,-969.0
-1,-100,-100,-100,"0,0,0",-1,0,31,0,0,0,81,83,180,50,41,418.52,159,-23.0,19.0,-983.0
-1,-100,-100,-100,"0,0,0",-1,0,31,0,0,0,81,83,180,50,41,418.52,159,-23.0,19.0,-983.0
-1,-100,-100,-100,"0,0,0",-1,0,30,0,0,0,81,83,182,50,41,418.43,159,-30.0,23.0,-994.0
-1,-100,-100,-100,"0,0,0",-1,0,30,0,0,0,81,83,182,50,41,418.43,159,-30.0,23.0,-994.0
-1,-100,-100,-100,"0,0,0",-1,0,30,0,0,0,81,83,183,50,41,418.42,159,-20.0,11.0,-996.0
-1,-100,-100,-100,"0,0,0",-1,0,30,0,0,0,81,83,183,50,41,418.46,159,-29.0,18.0,-986.0
-1,-100,-100,-100,"0,0,0",-1,0,30,0,0,0,81,83,184,50,41,418.46,159,-14.0,29.0,-1099.0
-1,-100,-100,-100,"0,0,0",-1,0,30,0,0,0,81,83,184,50,41,418.46,159,-14.0,29.0,-1099.0
-1,-100,-100,-100,"0,0,0",-1,0,31,0,0,1,81,83,186,50,41,418.53,159,-14.0,20.0,-1104.0
-1,-100,-100,-100,"0,0,0",0,0,31,0,0,2,81,83,189,50,41,418.54,159,-6.0,22.0,-1076.0
-1,-100,-100,-100,"0,0,0",0,-1,31,0,0,3,81,83,192,60,41,418.51,159,-29.0,23.0,-1068.0
-1,-100,-100,-100,"0,0,0",0,-1,31,0,0,3,81,83,192,60,41,418.51,159,-29.0,23.0,-1068.0
-1,-100,-100,-100,"0,0,0",0,0,31,0,0,3,81,83,196,60,41,418.57,159,-13.0,27.0,-928.0
-1,-100,-100,-100,"0,0,0",0,-1,31,0,0,3,81,83,200,60,41,418.64,160,-17.0,24.0,-940.0
-1,-100,-100,-100,"0,0,0",-1,-1,32,0,0,2,81,83,202,70,41,418.63,160,-25.0,17.0,-936.0
-1,-100,-100,-100,"0,0,0",-1,-1,32,0,0,2,81,83,202,70,41,418.63,160,-25.0,17.0,-936.0
-1,-100,-100,-100,"0,0,0",-1,-1,36,0,0,2,81,83,205,70,41,418.65,160,-8.0,35.0,-940.0
-1,-100,-100,-100,"0,0,0",-1,-1,37,0,0,1,81,83,206,70,41,418.71,160,-3.0,16.0,-952.0
-1,-100,-100,-100,"0,0,0",-1,-1,37,0,0,0,82,82,208,70,41,418.68,160,-19.0,28.0,-970.0
-1,-100,-100,-100,"0,0,0",-1,-1,37,0,0,0,82,82,208,70,41,418.68,160,-19.0,28.0,-970.0
-1,-100,-100,-100,"0,0,0",-1,-1,37,0,0,0,82,82,209,80,41,418.69,160,-31.0,20.0,-970.0
-1,-100,-100,-100,"0,0,0",-1,-1,37,0,0,0,82,82,208,80,41,418.71,160,-22.0,35.0,-1000.0
-1,-100,-100,-100,"0,0,0",0,-1,37,0,0,0,82,82,210,80,41,418.69,160,-33.0,16.0,-985.0
-1,-100,-100,-100,"0,0,0",0,-1,37,0,0,0,82,82,209,80,41,418.68,160,-22.0,27.0,-992.0
-1,-100,-100,-100,"0,0,0",0,-1,37,0,0,0,82,82,209,80,41,418.68,160,-22.0,27.0,-992.0
-1,-100,-100,-100,"0,0,0",0,-1,37,0,0,0,82,82,208,80,41,418.7,160,-17.0,20.0,-990.0
-1,-100,-100,-100,"0,0,0",0,-1,37,0,0,0,82,82,209,80,41,418.73,161,-22.0,23.0,-999.0
-1,-100,-100,-100,"0,0,0",0,-1,37,0,0,0,82,82,207,80,41,418.63,161,1.0,30.0,-992.0
-1,-100,-100,-100,"0,0,0",0,-1,37,0,0,0,82,82,207,80,41,418.63,161,1.0,30.0,-992.0
-1,-100,-100,-100,"0,0,0",0,-1,37,0,0,0,82,82,208,80,41,418.69,161,-27.0,18.0,-1004.0
-1,-100,-100,-100,"0,0,0",0,-1,37,0,0,0,82,82,208,80,41,418.66,161,7.0,25.0,-1000.0
-1,-100,-100,-100,"0,0,0",0,-1,37,0,0,0,82,83,208,80,41,418.68,161,-5.0,37.0,-996.0
-1,-100,-100,-100,"0,0,0",0,-1,37,0,0,0,82,83,208,80,41,418.68,161,-5.0,37.0,-996.0
-1,-100,-100,-100,"0,0,0",0,-1,37,0,0,0,82,83,208,80,41,418.7,161,0.0,22.0,-1009.0
-1,-100,-100,-100,"0,0,0",0,-1,37,0,0,0,82,83,207,80,41,418.7,161,-22.0,19.0,-1008.0
-1,-100,-100,-100,"0,0,0",0,-1,37,0,0,0,82,83,207,80,41,418.66,161,2.0,19.0,-1003.0
-1,-100,-100,-100,"0,0,0",0,-1,37,0,0,0,82,83,207,80,41,418.69,161,-30.0,22.0,-1003.0
-1,-100,-100,-100,"0,0,0",0,-1,37,0,0,0,82,83,207,80,41,418.69,161,-30.0,22.0,-1003.0
-1,-100,-100,-100,"0,0,0",0,-1,37,0,0,0,82,83,206,80,41,418.73,162,-14.0,22.0,-995.0
-1,-100,-100,-100,"0,0,0",0,-1,37,0,0,0,82,83,206,80,41,418.61,162,-15.0,24.0,-993.0
-1,-100,-100,-100,"0,0,0",0,-1,37,0,0,0,82,83,205,80,41,418.77,162,-13.0,26.0,-995.0
-1,-100,-100,-100,"0,0,0",0,-1,37,0,0,0,82,83,205,80,41,418.77,162,-13.0,26.0,-995.0
-1,-100,-100,-100,"0,0,0",0,-1,37,0,0,0,82,83,204,80,41,418.66,162,0.0,20.0,-1004.0
-1,-100,-100,-100,"0,0,0",0,-1,37,0,0,0,82,83,205,80,41,418.65,162,-16.0,18.0,-990.0
-1,-100,-100,-100,"0,0,0",0,-1,37,0,0,0,81,83,206,80,41,418.67,162,-17.0,25.0,-995.0
-1,-100,-100,-100,"0,0,0",0,-1,37,0,0,0,81,83,206,80,41,418.67,162,-17.0,25.0,-995.0
-1,-100,-100,-100,"0,0,0",0,-1,37,0,0,0,81,83,206,80,41,418.67,162,-31.0,14.0,-1008.0
-1,-100,-100,-100,"0,0,0",0,-1,37,0,0,0,81,83,206,80,41,418.69,162,-17.0,19.0,-1008.0
-1,-100,-100,-100,"0,0,0",0,-1,37,0,0,0,81,83,205,80,41,418.62,162,-9.0,27.0,-992.0
-1,-100,-100,-100,"0,0,0",-1,-1,37,0,0,0,81,83,206,80,41,418.66,162,-6.0,18.0,-992.0
-1,-100,-100,-100,"0,0,0",-5,-1,37,0,0,0,81,83,205,80,41,418.65,163,8.0,16.0,-1010.0
-1,-100,-100,-100,"0,0,0",-5,-1,37,0,0,0,81,83,205,80,41,418.65,163,8.0,16.0,-1010.0
-1,-100,-100,-100,"0,0,0",-5,-1,37,0,0,0,81,83,207,80,41,418.6,163,-29.0,20.0,-1044.0
-1,-100,-100,-100,"0,0,0",-2,-1,37,-1,-1,0,81,83,207,80,41,418.68,163,-35.0,19.0,-993.0
-1,-100,-100,-100,"0,0,0",-1,-1,37,-1,-1,0,81,83,205,80,41,418.69,163,-43.0,13.0,-1010.0
-1,-100,-100,-100,"0,0,0",-1,-1,37,-1,-1,0,81,83,205,80,41,418.69,163,-43.0,13.0,-1010.0
-1,-100,-100,-100,"0,0,0",0,0,37,-1,-1,0,81,83,205,80,41,418.64,163,-33.0,12.0,-1000.0
-1,-100,-100,-100,"0,0,0",0,0,38,-1,0,0,80,83,204,80,41,418.63,163,-6.0,-1.0,-994.0
-1,-100,-100,-100,"0,0,0",0,-1,42,-1,0,0,80,83,202,80,41,418.65,163,-28.0,13.0,-985.0
-1,-100,-100,-100,"0,0,0",2,0,43,0,0,0,80,83,203,80,41,418.63,163,-58.0,25.0,-1024.0
-1,-100,-100,-100,"0,0,0",2,0,43,0,0,0,80,83,203,80,41,418.63,163,-58.0,25.0,-1024.0
-1,-100,-100,-100,"0,0,0",1,0,43,0,0,0,80,83,204,80,41,418.62,163,-2.0,27.0,-994.0
-1,-100,-100,-100,"0,0,0",0,0,44,0,0,0,80,83,202,80,41,418.62,163,-24.0,24.0,-991.0
-1,-100,-100,-100,"0,0,0",0,0,45,0,0,0,80,83,202,80,41,418.55,164,-22.0,24.0,-997.0
-1,-100,-100,-100,"0,0,0",0,0,45,0,0,0,80,83,202,80,41,418.55,164,-22.0,24.0,-997.0
-1,-100,-100,-100,"0,0,0",0,0,45,0,0,0,80,83,202,80,41,418.65,164,-16.0,20.0,-989.0
-1,-100,-100,-100,"0,0,0",0,0,45,0,0,0,80,83,201,80,41,418.71,164,-22.0,20.0,-994.0
-1,-100,-100,-100,"0,0,0",0,-1,46,0,0,0,80,83,202,80,41,418.63,164,-8.0,22.0,-1009.0
-1,-100,-100,-100,"0,0,0",0,-1,46,0,0,0,80,83,202,70,40,418.57,164,-31.0,7.0,-1011.0
-1,-100,-100,-100,"0,0,0",0,-1,46,0,0,0,80,83,202,70,40,418.57,164,-31.0,7.0,-1011.0
-1,-100,-100,-100,"0,0,0",0,-1,46,0,0,0,81,83,201,70,40,418.68,164,-12.0,16.0,-996.0
-1,-100,-100,-100,"0,0,0",0,-1,47,0,0,0,81,83,203,70,40,418.61,164,-6.0,30.0,-997.0
-1,-100,-100,-100,"0,0,0",0,-1,47,0,0,0,81,83,202,70,40,418.6,164,-33.0,26.0,-1002.0
-1,-100,-100,-100,"0,0,0",0,-1,47,0,0,0,81,83,202,70,40,418.6,164,-33.0,26.0,-1002.0
-1,-100,-100,-100,"0,0,0",0,-1,47,0,0,0,81,83,201,70,40,418.63,164,-8.0,19.0,-1012.0
-1,-100,-100,-100,"0,0,0",0,-1,47,0,0,0,81,83,202,70,40,418.64,164,-6.0,24.0,-1005.0
-1,-100,-100,-100,"0,0,0",0,-1,47,0,0,0,81,83,203,70,40,418.6,165,-7.0,27.0,-1007.0
-1,-100,-100,-100,"0,0,0",0,-1,47,0,0,0,81,83,203,70,40,418.6,165,-7.0,27.0,-1007.0
-1,-100,-100,-100,"0,0,0",-1,-1,47,0,0,0,81,83,203,80,40,418.64,165,5.0,17.0,-1015.0
-1,-100,-100,-100,"0,0,0",-5,-1,47,0,0,0,81,83,205,80,40,418.64,165,-18.0,14.0,-998.0
-1,-100,-100,-100,"0,0,0",-8,-1,47,0,-1,0,81,83,208,80,40,418.53,165,-34.0,16.0,-1001.0
-1,-100,-100,-100,"0,0,0",-8,0,47,-1,-2,0,81,83,209,80,40,418.68,165,-16.0,21.0,-1005.0
-1,-100,-100,-100,"0,0,0",-8,0,47,-1,-2,0,81,83,209,80,40,418.68,165,-16.0,21.0,-1005.0
-1,-100,-100,-100,"0,0,0",-8,0,47,-2,-3,0,81,83,207,80,40,418.61,165,-27.0,29.0,-1000.0
-1,-100,-100,-100,"0,0,0",-8,-1,47,-3,-4,0,81,83,207,80,40,418.53,165,-52.0,18.0,-1002.0
-1,-100,-100,-100,"0,0,0",-8,-1,47,-4,-5,0,81,83,206,80,40,418.54,165,-37.0,25.0,-1002.0
-1,-100,-100,-100,"0,0,0",-8,-1,47,-4,-5,0,81,83,206,80,40,418.54,165,-37.0,25.0,-1002.0
-1,-100,-100,-100,"0,0,0",-8,-1,47,-5,-5,0,81,83,205,80,40,418.52,165,-58.0,25.0,-1009.0
-1,-100,-100,-100,"0,0,0",-8,-1,47,-5,-6,0,81,83,205,80,40,418.57,165,-43.0,17.0,-979.0
-1,-100,-100,-100,"0,0,0",-3,-1,47,-6,-6,0,81,83,196,80,40,418.52,166,-76.0,15.0,-1000.0
-1,-100,-100,-100,"0,0,0",-3,-1,47,-6,-6,0,81,83,196,80,40,418.52,166,-76.0,15.0,-1000.0
-1,-100,-100,-100,"0,0,0",0,-1,47,-6,-6,0,81,83,199,80,40,418.59,166,-31.0,14.0,-980.0
-1,-100,-100,-100,"0,0,0",0,-1,47,-5,-6,0,81,83,202,70,40,418.64,166,-68.0,14.0,-1000.0
-1,-100,-100,-100,"0,0,0",1,0,47,-5,-5,0,81,83,205,70,40,418.59,166,-62.0,23.0,-995.0
-1,-100,-100,-100,"0,0,0",0,-1,47,-4,-4,0,81,83,204,70,40,418.56,166,-73.0,20.0,-998.0
-1,-100,-100,-100,"0,0,0",0,-1,47,-4,-4,0,81,83,204,70,40,418.56,166,-73.0,20.0,-998.0
-1,-100,-100,-100,"0,0,0",1,-1,47,-3,-4,0,81,84,203,70,40,418.55,166,-40.0,26.0,-999.0
-1,-100,-100,-100,"0,0,0",6,-1,47,-3,-3,0,81,84,170,70,40,418.65,166,-42.0,19.0,-1027.0
-1,-100,-100,-100,"0,0,0",8,-1,47,-2,-2,0,81,84,115,80,40,418.65,166,-45.0,13.0,-1015.0
-1,-100,-100,-100,"0,0,0",8,0,47,-1,-1,0,81,84,96,80,40,418.65,166,-16.0,19.0,-1015.0
-1,-100,-100,-100,"0,0,0",7,0,47,0,0,0,81,84,94,70,40,418.6,166,-18.0,22.0,-1013.0
-1,-100,-100,-100,"0,0,0",7,0,47,0,0,0,81,84,94,70,40,418.6,166,-18.0,22.0,-1013.0
-1,-100,-100,-100,"0,0,0",6,0,47,0,1,0,81,84,118,70,40,418.68,167,0.0,21.0,-1015.0
-1,-100,-100,-100,"0,0,0",5,0,47,1,1,0,81,84,142,70,40,418.61,167,5.0,21.0,-1011.0
-1,-100,-100,-100,"0,0,0",6,0,47,2,2,0,81,84,148,70,40,418.7,167,6.0,17.0,-1013.0
-1,-100,-100,-100,"0,0,0",6,0,47,2,2,0,81,84,148,70,40,418.7,167,6.0,17.0,-1013.0
-1,-100,-100,-100,"0,0,0",6,0,48,2,2,0,81,84,166,70,40,418.62,167,44.0,8.0,-1008.0
-1,-100,-100,-100,"0,0,0",7,0,52,3,3,0,81,84,186,80,40,418.6,167,48.0,18.0,-991.0
-1,-100,-100,-100,"0,0,0",7,0,57,3,4,0,80,83,201,80,40,418.6,167,55.0,20.0,-986.0
-1,-100,-100,-100,"0,0,0",7,0,57,3,4,0,80,83,201,80,40,418.6,167,55.0,20.0,-986.0
-1,-100,-100,-100,"0,0,0",4,-1,62,4,4,0,80,83,210,80,40,418.65,167,59.0,1.0,-997.0
-1,-100,-100,-100,"0,0,0",1,0,67,4,5,0,80,83,208,80,40,418.67,167,71.0,-8.0,-975.0
-1,-100,-100,-100,"0,0,0",0,0,72,3,5,0,80,83,207,80,40,418.68,167,63.0,-6.0,-978.0
-1,-100,-100,-100,"0,0,0",0,0,77,3,4,0,80,83,202,80,40,418.67,167,38.0,-11.0,-982.0
-1,-100,-100,-100,"0,0,0",0,0,77,3,4,0,80,83,202,80,40,418.67,167,38.0,-11.0,-982.0
-1,-100,-100,-100,"0,0,0",-1,0,82,3,4,0,80,83,200,80,40,418.64,168,12.0,-9.0,-997.0
-1,-100,-100,-100,"0,0,0",-1,0,86,2,3,0,80,83,198,80,40,418.69,168,18.0,-1.0,-998.0
-1,-100,-100,-100,"0,0,0",0,-1,90,2,3,0,80,83,199,80,40,418.65,168,29.0,-3.0,-969.0
-1,-100,-100,-100,"0,0,0",0,-1,90,2,3,0,80,83,199,80,40,418.65,168,29.0,-3.0,-969.0
-1,-100,-100,-100,"0,0,0",2,-1,90,2,3,0,80,83,202,80,40,418.7,168,7.0,3.0,-1005.0
-1,-100,-100,-100,"0,0,0",6,-1,90,1,3,0,80,83,209,80,40,418.74,168,31.0,1.0,-1009.0
-1,-100,-100,-100,"0,0,0",8,-1,90,1,4,0,80,82,210,80,40,418.79,168,16.0,-5.0,-1042.0
-1,-100,-100,-100,"0,0,0",8,-1,90,1,4,0,80,82,210,80,40,418.79,168,16.0,-5.0,-1042.0
