mid,x,y,z,mpry,pitch,roll,yaw,vgx,vgy,vgz,templ,temph,tof,h,bat,baro,time,agx,agy,agz
-1,-100,-100,-100,"0,0,0",0,-1,-1,0,0,0,69,71,10,0,100,358.05,40,-18.0,15.0,-1002.0
-1,-100,-100,-100,"0,0,0",0,-1,-1,0,0,0,69,71,10,0,100,358.05,40,-18.0,15.0,-1002.0
-1,-100,-100,-100,"0,0,0",0,-1,-1,0,0,0,69,71,10,0,100,358.11,40,-17.0,15.0,-1000.0
-1,-100,-100,-100,"0,0,0",0,-1,-1,0,0,0,69,71,10,0,100,358.12,40,-18.0,16.0,-998.0
-1,-100,-100,-100,"0,0,0",0,-1,-1,0,0,0,69,71,10,0,100,358.12,40,-18.0,16.0,-998.0
-1,-100,-100,-100,"0,0,0",0,-1,-1,0,0,0,69,71,10,0,100,358.15,40,-18.0,16.0,-998.0
-1,-100,-100,-100,"0,0,0",0,-1,-1,0,0,0,69,71,10,0,100,358.09,40,-17.0,16.0,-1000.0
-1,-100,-100,-100,"0,0,0",0,-1,-1,0,0,0,69,71,10,0,100,358.13,40,-17.0,15.0,-1001.0
-1,-100,-100,-100,"0,0,0",0,-1,-1,0,0,0,69,71,10,0,100,358.15,40,-17.0,15.0,-1001.0
-1,-100,-100,-100,"0,0,0",0,-1,-1,0,0,0,69,71,10,0,100,358.12,40,-17.0,14.0,-999.0
-1,-100,-100,-100,"0,0,0",0,-1,-1,0,0,0,69,71,10,0,100,358.17,40,-17.0,16.0,-999.0
-1,-100,-100,-100,"0,0,0",0,-1,-1,0,0,0,69,71,10,0,100,358.11,40,-17.0,16.0,-999.0
-1,-100,-100,-100,"0,0,0",0,-1,-1,0,0,0,69,71,10,0,100,358.11,40,-19.0,13.0,-1000.0
-1,-100,-100,-100,"0,0,0",0,-1,-1,0,0,0,69,71,10,0,100,358.18,40,-18.0,15.0,-1001.0
-1,-100,-100,-100,"0,0,0",0,-1,-1,0,0,0,69,71,10,0,100,358.1,40,-18.0,15.0,-998.0
-1,-100,-100,-100,"0,0,0",0,-1,-1,0,0,0,69,71,10,0,100,358.19,40,-17.0,14.0,-1001.0
-1,-100,-100,-100,"0,0,0",0,-1,-1,0,0,0,69,71,10,0,100,358.17,40,-17.0,16.0,-1001.0
-1,-100,-100,-100,"0,0,0",-1,0,-3,-1,0,0,69,72,80,40,100,359.17,49,20.0,22.0,-982.0
-1,-100,-100,-100,"0,0,0",0,0,-3,-1,0,0,69,72,80,40,100,359.2,49,6.0,8.0,-960.0
-1,-100,-100,-100,"0,0,0",-2,0,-3,-1,0,0,69,72,79,40,100,359.14,49,11.0,16.0,-1004.0
-1,-100,-100,-100,"0,0,0",-2,0,-3,-1,-1,0,69,72,79,40,100,359.18,49,-6.0,42.0,-951.0
-1,-100,-100,-100,"0,0,0",-2,-1,-3,-1,-1,0,69,72,79,40,100,359.03,49,-4.0,38.0,-1049.0
-1,-100,-100,-100,"0,0,0",-1,-1,-3,-1,0,0,69,70,79,40,100,359.17,50,16.0,18.0,-995.0
-1,-100,-100,-100,"0,0,0",-2,-1,-3,-1,0,0,69,70,79,40,100,359.15,50,14.0,-22.0,-1016.0
-1,-100,-100,-100,"0,0,0",-1,1,-3,-1,0,0,69,70,78,40,100,359.23,50,8.0,-16.0,-1016.0
-1,-100,-100,-100,"0,0,0",-4,2,-3,-1,0,0,69,70,78,40,100,359.17,50,9.0,3.0,-1011.0
-1,-100,-100,-100,"0,0,0",-4,0,-3,-2,0,0,69,70,79,40,100,359.02,50,9.0,-28.0,-979.0
-1,-100,-100,-100,"0,0,0",-5,0,2,-3,0,0,69,71,79,40,100,359.14,51,-30.0,2.0,-993.0
-1,-100,-100,-100,"0,0,0",-5,0,9,-3,0,0,69,71,79,40,100,359.09,51,-28.0,-1.0,-998.0
-1,-100,-100,-100,"0,0,0",-4,0,16,-3,0,0,69,71,80,40,100,359.13,51,-36.0,-12.0,-986.0
-1,-100,-100,-100,"0,0,0",-5,0,24,-4,0,0,69,71,81,40,100,359.02,51,-16.0,-18.0,-1009.0
-1,-100,-100,-100,"0,0,0",-4,0,24,-5,0,0,69,71,81,40,100,359.06,51,-58.0,21.0,-1023.0
-1,-100,-100,-100,"0,0,0",1,2,24,-4,0,0,69,71,74,40,100,359.01,52,-13.0,86.0,-992.0
-1,-100,-100,-100,"0,0,0",3,-1,24,-2,-1,0,69,71,73,40,100,359.18,52,8.0,-10.0,-1059.0
-1,-100,-100,-100,"0,0,0",5,-1,24,0,0,0,69,71,81,40,100,359.14,52,48.0,-5.0,-1016.0
-1,-100,-100,-100,"0,0,0",3,0,24,1,1,0,69,71,82,40,100,359.16,52,74.0,-10.0,-968.0
-1,-100,-100,-100,"0,0,0",-1,1,24,1,2,0,69,71,81,40,100,359.16,53,55.0,-38.0,-976.0
-1,-100,-100,-100,"0,0,0",-5,2,24,0,1,0,69,71,81,40,100,359.18,53,19.0,-20.0,-1007.0
-1,-100,-100,-100,"0,0,0",-5,2,24,-1,0,0,69,71,79,40,100,359.14,53,38.0,-5.0,-986.0
-1,-100,-100,-100,"0,0,0",-1,0,24,-1,0,0,69,71,79,40,100,359.11,53,17.0,-6.0,-1053.0
-1,-100,-100,-100,"0,0,0",0,0,24,-1,0,0,69,71,79,40,100,359.11,53,-20.0,-14.0,-993.0
-1,-100,-100,-100,"0,0,0",0,1,24,0,0,0,70,72,80,40,100,359.19,54,-12.0,-6.0,-982.0
-1,-100,-100,-100,"0,0,0",-2,1,24,0,0,0,70,72,80,40,100,359.12,54,7.0,-26.0,-1001.0
-1,-100,-100,-100,"0,0,0",-1,1,25,0,0,-2,70,72,76,40,100,359.14,54,27.0,-17.0,-839.0
-1,-100,-100,-100,"0,0,0",0,1,24,0,0,0,70,72,73,30,100,359.21,54,23.0,4.0,-1054.0
-1,-100,-100,-100,"0,0,0",-1,-2,25,0,0,2,70,72,74,30,100,359.28,54,25.0,22.0,-1145.0
-1,-100,-100,-100,"0,0,0",0,-1,25,0,0,4,69,71,80,40,100,359.18,55,53.0,-5.0,-1043.0
-1,-100,-100,-100,"0,0,0",0,0,24,0,0,4,69,71,88,50,100,359.31,55,73.0,-5.0,-1044.0
-1,-100,-100,-100,"0,0,0",0,0,24,0,0,5,69,71,97,60,100,359.26,55,38.0,2.0,-877.0
-1,-100,-100,-100,"0,0,0",0,0,24,0,0,2,69,71,105,70,100,359.58,55,62.0,7.0,-922.0
-1,-100,-100,-100,"0,0,0",-4,0,24,-1,0,0,69,71,51,70,100,359.5,55,11.0,-22.0,-978.0
-1,-100,-100,-100,"0,0,0",-5,0,24,-3,0,0,68,71,55,70,100,359.55,56,7.0,-11.0,-1087.0
-1,-100,-100,-100,"0,0,0",-4,1,24,-4,-1,2,68,71,112,70,100,359.49,56,1.0,-20.0,-1142.0
-1,-100,-100,-100,"0,0,0",-6,1,23,-5,-1,4,68,71,120,80,100,359.51,56,-14.0,9.0,-986.0
-1,-100,-100,-100,"0,0,0",-6,0,24,-5,-2,2,68,71,128,90,100,359.42,56,-39.0,-17.0,-914.0
-1,-100,-100,-100,"0,0,0",-4,0,31,-5,-2,1,68,71,133,90,100,359.4,56,-60.0,5.0,-960.0
-1,-100,-100,-100,"0,0,0",-1,0,38,-5,-1,0,69,72,135,90,100,359.62,57,-31.0,16.0,-971.0
-1,-100,-100,-100,"0,0,0",-6,0,45,-4,-1,0,69,72,136,90,100,359.55,57,-2.0,-8.0,-981.0
-1,-100,-100,-100,"0,0,0",-7,0,52,-4,-2,0,69,72,137,90,100,359.48,57,-27.0,16.0,-971.0
-1,-100,-100,-100,"0,0,0",-6,0,60,-4,-4,0,69,72,138,90,100,359.54,57,-32.0,35.0,-986.0
-1,-100,-100,-100,"0,0,0",-6,-1,69,-4,-5,0,69,72,137,90,100,359.58,57,-10.0,33.0,-1019.0
-1,-100,-100,-100,"0,0,0",-7,-2,79,-4,-6,0,70,73,138,90,100,359.59,58,-28.0,46.0,-989.0
-1,-100,-100,-100,"0,0,0",-7,-2,89,-4,-7,0,70,73,136,90,100,359.59,58,-31.0,33.0,-987.0
-1,-100,-100,-100,"0,0,0",-3,0,102,-2,-11,0,70,73,47,90,100,359.51,58,10.0,11.0,-1062.0
-1,-100,-100,-100,"0,0,0",0,0,110,-1,-11,0,70,73,134,90,100,359.47,58,-31.0,17.0,-1038.0
-1,-100,-100,-100,"0,0,0",2,0,118,-1,-9,0,70,73,135,90,100,359.34,58,-24.0,33.0,-1045.0
-1,-100,-100,-100,"0,0,0",2,0,128,0,-7,0,69,72,136,90,100,359.57,59,-28.0,34.0,-992.0
-1,-100,-100,-100,"0,0,0",2,0,136,0,-5,0,69,72,136,90,100,359.53,59,-15.0,25.0,-997.0
-1,-100,-100,-100,"0,0,0",1,0,142,0,-4,0,69,72,136,90,100,359.41,59,-4.0,12.0,-976.0
-1,-100,-100,-100,"0,0,0",1,1,150,0,-3,0,69,72,136,90,100,359.48,59,-23.0,19.0,-989.0
-1,-100,-100,-100,"0,0,0",0,0,158,0,-2,0,69,72,135,90,100,359.51,59,-18.0,6.0,-1007.0
-1,-100,-100,-100,"0,0,0",-4,0,166,1,-1,0,70,72,137,90,100,359.65,60,-2.0,30.0,-993.0
-1,-100,-100,-100,"0,0,0",0,-1,175,2,-1,0,70,72,135,90,100,359.51,60,-37.0,4.0,-1009.0
-1,-100,-100,-100,"0,0,0",1,0,-173,2,-1,0,70,72,134,90,100,359.55,60,7.0,20.0,-1045.0
-1,-100,-100,-100,"0,0,0",4,2,-160,1,-1,0,70,72,134,90,100,359.67,60,2.0,15.0,-939.0
-1,-100,-100,-100,"0,0,0",1,2,-146,0,0,0,70,72,133,90,100,359.67,60,-14.0,-19.0,-1012.0
-1,-100,-100,-100,"0,0,0",0,1,-132,0,0,0,70,72,131,90,100,359.61,61,-21.0,-17.0,-1047.0
-1,-100,-100,-100,"0,0,0",0,2,-120,0,0,0,70,72,131,90,100,359.56,61,-9.0,-9.0,-1022.0
-1,-100,-100,-100,"0,0,0",0,2,-110,0,0,0,70,72,131,90,100,359.57,61,-26.0,-1.0,-1005.0
-1,-100,-100,-100,"0,0,0",0,0,-99,0,0,0,70,72,132,90,100,359.57,61,-24.0,-11.0,-982.0
-1,-100,-100,-100,"0,0,0",0,1,-98,0,0,0,69,70,132,90,100,359.5,62,-31.0,10.0,-980.0
-1,-100,-100,-100,"0,0,0",0,0,-98,-1,0,0,69,70,131,90,100,359.6,62,-29.0,-14.0,-1003.0
-1,-100,-100,-100,"0,0,0",0,1,-98,0,0,0,69,70,130,90,100,359.56,62,-40.0,-16.0,-1019.0
-1,-100,-100,-100,"0,0,0",0,1,-98,0,0,0,69,70,130,90,100,359.6,62,-1.0,-9.0,-1006.0
-1,-100,-100,-100,"0,0,0",0,1,-98,0,0,0,69,70,130,90,100,359.56,62,-12.0,-5.0,-992.0
-1,-100,-100,-100,"0,0,0",0,0,-98,0,0,0,69,70,130,90,100,359.53,62,-10.0,2.0,-981.0
-1,-100,-100,-100,"0,0,0",0,0,-97,0,0,0,70,71,130,90,100,359.52,63,-26.0,9.0,-987.0
-1,-100,-100,-100,"0,0,0",0,0,-97,0,0,0,70,71,129,90,100,359.51,63,-60.0,31.0,-989.0
-1,-100,-100,-100,"0,0,0",-1,0,-97,-1,0,0,70,71,130,90,100,359.41,63,2.0,3.0,-1017.0
-1,-100,-100,-100,"0,0,0",-1,-1,-97,-1,0,0,70,71,131,90,100,359.48,63,-44.0,16.0,-1017.0
-1,-100,-100,-100,"0,0,0",-1,0,-98,0,0,0,69,72,132,90,100,359.56,64,-32.0,17.0,-1021.0
-1,-100,-100,-100,"0,0,0",-1,0,-98,0,0,0,69,72,133,90,100,359.71,64,-23.0,-8.0,-1025.0
-1,-100,-100,-100,"0,0,0",-1,1,-98,0,0,0,69,72,135,90,100,359.62,64,1.0,-20.0,-989.0
-1,-100,-100,-100,"0,0,0",-6,0,-97,0,0,0,69,72,137,90,100,359.59,64,-38.0,11.0,-961.0
-1,-100,-100,-100,"0,0,0",-6,-1,-96,0,2,0,69,72,137,90,100,359.52,64,-39.0,34.0,-995.0
-1,-100,-100,-100,"0,0,0",-6,-1,-90,0,3,0,69,71,99,90,100,359.56,65,-37.0,-14.0,-1027.0
-1,-100,-100,-100,"0,0,0",-8,0,-90,1,5,0,69,71,51,90,100,359.52,65,-50.0,-17.0,-980.0
-1,-100,-100,-100,"0,0,0",-5,0,-90,1,6,0,69,71,136,90,100,359.51,65,-59.0,15.0,-989.0
-1,-100,-100,-100,"0,0,0",-6,1,-89,0,7,0,69,71,139,90,100,359.45,65,-29.0,35.0,-996.0
-1,-100,-100,-100,"0,0,0",-7,0,-90,0,8,0,69,71,137,90,100,359.55,65,-54.0,23.0,-1001.0
-1,-100,-100,-100,"0,0,0",-7,0,-90,0,8,0,70,72,137,90,100,359.63,66,-2.0,-6.0,-956.0
-1,-100,-100,-100,"0,0,0",-6,0,-90,0,9,0,70,72,134,90,100,359.39,66,-55.0,-1.0,-1053.0
-1,-100,-100,-100,"0,0,0",-1,0,-84,0,10,0,70,72,134,90,100,359.46,66,-64.0,34.0,-967.0
-1,-100,-100,-100,"0,0,0",6,0,-75,0,8,0,70,72,136,90,100,359.69,66,-27.0,29.0,-979.0
-1,-100,-100,-100,"0,0,0",6,1,-64,0,5,0,70,72,113,90,100,359.49,66,-10.0,55.0,-998.0
-1,-100,-100,-100,"0,0,0",7,1,-53,0,3,0,70,73,71,90,100,359.71,67,8.0,47.0,-1032.0
-1,-100,-100,-100,"0,0,0",4,0,-43,0,1,0,70,73,68,90,100,359.65,67,63.0,32.0,-1026.0
-1,-100,-100,-100,"0,0,0",3,0,-33,0,1,0,70,73,64,90,100,359.67,67,52.0,6.0,-1007.0
-1,-100,-100,-100,"0,0,0",3,2,-24,1,1,0,70,73,49,90,100,359.71,67,83.0,16.0,-1002.0
-1,-100,-100,-100,"0,0,0",3,2,-16,1,0,0,70,73,46,90,100,359.81,67,32.0,-15.0,-957.0
-1,-100,-100,-100,"0,0,0",-2,2,-9,0,0,0,70,73,46,90,100,359.73,68,22.0,-9.0,-983.0
-1,-100,-100,-100,"0,0,0",-2,1,-1,0,0,0,70,73,46,90,100,359.52,68,22.0,-14.0,-1013.0
-1,-100,-100,-100,"0,0,0",-4,1,8,-1,1,0,70,73,41,90,100,359.66,68,18.0,-14.0,-990.0
-1,-100,-100,-100,"0,0,0",-3,0,22,-2,0,0,70,73,36,90,100,359.58,68,-12.0,-12.0,-985.0
-1,-100,-100,-100,"0,0,0",-2,0,31,-3,0,0,70,73,33,90,100,359.65,68,20.0,-12.0,-1002.0
-1,-100,-100,-100,"0,0,0",-3,0,41,-4,0,0,70,71,32,90,100,359.68,69,3.0,-27.0,-1020.0
-1,-100,-100,-100,"0,0,0",-1,2,51,-5,-1,0,70,71,39,90,100,359.51,69,-29.0,-22.0,-1009.0
-1,-100,-100,-100,"0,0,0",-2,2,61,-4,-2,0,70,71,54,90,100,359.6,69,-11.0,0.0,-982.0
-1,-100,-100,-100,"0,0,0",-1,2,69,-4,-2,0,70,71,64,90,100,359.64,69,-16.0,-21.0,-1024.0
-1,-100,-100,-100,"0,0,0",-3,2,76,-4,-3,0,70,71,64,90,100,359.51,69,-25.0,-24.0,-984.0
-1,-100,-100,-100,"0,0,0",-3,2,77,-3,-4,0,69,72,120,90,100,359.43,70,-33.0,-14.0,-978.0
-1,-100,-100,-100,"0,0,0",-5,3,77,-3,-5,0,69,72,128,90,100,359.3,70,-18.0,-25.0,-1015.0
-1,-100,-100,-100,"0,0,0",-6,0,85,0,-5,0,69,72,128,80,100,359.47,70,-58.0,16.0,-1006.0
-1,-100,-100,-100,"0,0,0",-6,-2,93,0,-6,0,69,72,129,80,100,359.44,70,-95.0,45.0,-1009.0
-1,-100,-100,-100,"0,0,0",-6,-1,94,0,-7,0,69,72,130,80,100,359.38,70,-79.0,7.0,-974.0
-1,-100,-100,-100,"0,0,0",-7,0,94,0,-8,0,70,72,132,80,100,359.44,71,-64.0,36.0,-938.0
-1,-100,-100,-100,"0,0,0",-6,-1,94,0,-10,0,70,72,131,80,100,359.51,71,-8.0,44.0,-984.0
-1,-100,-100,-100,"0,0,0",-2,-3,94,1,-12,0,70,72,130,80,100,359.42,71,-55.0,2.0,-1038.0
-1,-100,-100,-100,"0,0,0",1,0,94,0,-11,0,70,72,131,80,100,359.39,71,-60.0,11.0,-1000.0
-1,-100,-100,-100,"0,0,0",6,0,94,1,-8,0,70,72,133,80,100,359.51,71,-37.0,19.0,-1021.0
-1,-100,-100,-100,"0,0,0",6,-1,94,1,-4,0,69,72,135,90,100,359.65,72,-27.0,7.0,-979.0
-1,-100,-100,-100,"0,0,0",6,0,94,1,-1,0,69,72,134,90,100,359.69,72,-12.0,18.0,-995.0
-1,-100,-100,-100,"0,0,0",6,0,95,1,0,0,69,72,129,90,100,359.54,72,27.0,29.0,-1017.0
-1,-100,-100,-100,"0,0,0",6,-1,95,1,1,0,69,72,125,90,100,359.63,72,25.0,38.0,-1026.0
-1,-100,-100,-100,"0,0,0",6,-1,94,1,3,0,70,72,129,90,100,359.78,73,43.0,4.0,-1017.0
-1,-100,-100,-100,"0,0,0",6,-2,94,1,4,0,70,72,132,80,100,359.74,73,56.0,21.0,-1030.0
-1,-100,-100,-100,"0,0,0",6,-1,94,0,5,0,70,72,134,90,100,359.77,73,37.0,-4.0,-1039.0
-1,-100,-100,-100,"0,0,0",7,0,97,0,6,0,70,72,134,90,100,359.68,73,28.0,-12.0,-987.0
-1,-100,-100,-100,"0,0,0",7,0,101,0,8,0,70,72,134,90,100,359.78,73,66.0,-29.0,-994.0
-1,-100,-100,-100,"0,0,0",7,0,101,-1,9,0,70,73,134,90,100,359.67,74,81.0,-16.0,-1020.0
-1,-100,-100,-100,"0,0,0",6,-1,101,-1,10,0,70,73,132,90,100,359.47,74,76.0,20.0,-1015.0
-1,-100,-100,-100,"0,0,0",5,-1,101,-1,10,0,70,73,131,90,100,359.62,74,96.0,10.0,-969.0
-1,-100,-100,-100,"0,0,0",3,-2,102,0,10,0,70,73,130,90,100,359.68,74,114.0,44.0,-1007.0
-1,-100,-100,-100,"0,0,0",-1,-4,101,0,9,0,70,73,129,80,100,359.59,74,29.0,21.0,-999.0
-1,-100,-100,-100,"0,0,0",-7,-1,101,0,7,0,70,72,55,80,100,359.6,75,25.0,35.0,-1044.0
-1,-100,-100,-100,"0,0,0",-3,-1,102,0,4,0,70,72,52,80,100,359.55,75,-20.0,22.0,-1039.0
-1,-100,-100,-100,"0,0,0",-3,-1,102,0,4,0,70,72,52,80,100,359.54,75,1.0,9.0,-1000.0
-1,-100,-100,-100,"0,0,0",-3,-1,101,1,2,0,70,72,52,80,100,359.51,75,11.0,18.0,-1020.0
-1,-100,-100,-100,"0,0,0",-4,-2,102,1,1,0,70,72,52,80,100,359.62,75,-42.0,2.0,-983.0
-1,-100,-100,-100,"0,0,0",-4,0,102,1,0,0,70,72,52,80,100,359.73,76,-1.0,26.0,-999.0
-1,-100,-100,-100,"0,0,0",-4,-2,101,1,0,0,70,72,52,80,100,359.52,76,-26.0,24.0,-1010.0
-1,-100,-100,-100,"0,0,0",-3,-2,102,1,-1,0,70,72,51,80,100,359.64,76,-10.0,12.0,-1154.0
-1,-100,-100,-100,"0,0,0",-14,9,106,0,0,3,70,72,61,90,100,359.75,76,-12.0,125.0,-998.0
-1,-100,-100,-100,"0,0,0",2,-4,101,2,-2,4,70,72,23,100,100,359.57,77,-66.0,-30.0,-1169.0
-1,-100,-100,-100,"0,0,0",5,-4,101,0,0,3,71,71,75,100,100,359.69,77,-31.0,0.0,-914.0
-1,-100,-100,-100,"0,0,0",2,-2,101,0,0,2,71,71,80,110,100,359.95,77,-14.0,-3.0,-926.0
-1,-100,-100,-100,"0,0,0",0,0,98,-1,0,1,71,71,82,110,100,359.81,77,-12.0,-21.0,-988.0
-1,-100,-100,-100,"0,0,0",0,1,90,0,0,0,71,71,84,110,100,359.8,77,-12.0,8.0,-951.0
-1,-100,-100,-100,"0,0,0",0,-1,82,0,0,0,71,71,87,120,100,359.89,78,29.0,0.0,-995.0
-1,-100,-100,-100,"0,0,0",0,0,73,0,0,0,69,72,86,120,100,359.92,78,15.0,-9.0,-995.0
-1,-100,-100,-100,"0,0,0",-5,0,68,0,-1,0,69,72,83,120,100,359.97,78,11.0,10.0,-983.0
-1,-100,-100,-100,"0,0,0",-5,0,66,-1,-2,0,69,72,85,110,100,359.86,78,-2.0,-2.0,-1013.0
-1,-100,-100,-100,"0,0,0",-5,0,66,-1,-3,0,69,72,110,110,100,359.82,78,-34.0,-3.0,-1012.0
-1,-100,-100,-100,"0,0,0",-6,0,64,-1,-4,0,69,72,156,110,100,359.68,79,-66.0,17.0,-996.0
-1,-100,-100,-100,"0,0,0",-7,-1,62,-2,-6,0,70,72,159,110,100,359.75,79,-45.0,6.0,-1025.0
-1,-100,-100,-100,"0,0,0",-7,-1,59,-3,-7,0,70,72,76,120,100,359.78,79,-57.0,0.0,-1009.0
-1,-100,-100,-100,"0,0,0",-7,1,50,-5,-8,0,70,72,115,120,100,359.85,79,-35.0,-36.0,-999.0
-1,-100,-100,-100,"0,0,0",-5,1,40,-6,-10,0,70,72,155,120,100,359.72,79,-34.0,-32.0,-1016.0
-1,-100,-100,-100,"0,0,0",2,-1,31,-6,-9,0,70,72,161,110,100,359.79,80,-72.0,-7.0,-995.0
-1,-100,-100,-100,"0,0,0",2,-2,23,-4,-7,0,70,72,161,110,100,359.75,80,-25.0,-18.0,-1022.0
-1,-100,-100,-100,"0,0,0",1,-2,15,-3,-6,0,70,72,162,120,100,359.89,80,-33.0,4.0,-995.0
-1,-100,-100,-100,"0,0,0",0,-3,5,-3,-5,0,70,72,163,120,100,359.96,80,-40.0,-5.0,-975.0
-1,-100,-100,-100,"0,0,0",0,-2,-4,-2,-4,0,70,72,162,120,100,359.86,80,-26.0,-1.0,-980.0
-1,-100,-100,-100,"0,0,0",-6,-2,-12,-2,-3,0,70,72,161,120,100,359.92,81,-22.0,-16.0,-985.0
-1,-100,-100,-100,"0,0,0",-7,0,-20,-3,-1,0,71,72,162,120,100,359.8,81,-38.0,-2.0,-995.0
-1,-100,-100,-100,"0,0,0",-7,0,-28,-4,-1,0,71,72,160,120,100,359.8,81,-65.0,10.0,-1019.0
-1,-100,-100,-100,"0,0,0",-7,0,-35,-5,0,0,71,72,159,110,100,359.67,81,-87.0,22.0,-991.0
-1,-100,-100,-100,"0,0,0",-7,0,-42,-6,0,0,71,72,159,110,100,359.6,81,-61.0,-12.0,-976.0
-1,-100,-100,-100,"0,0,0",-3,0,-49,-6,1,0,71,72,159,110,100,359.8,82,-74.0,4.0,-942.0
-1,-100,-100,-100,"0,0,0",-1,0,-56,-5,1,0,70,72,158,110,100,359.85,82,-45.0,-14.0,-990.0
-1,-100,-100,-100,"0,0,0",-1,0,-62,-4,1,0,70,72,156,110,100,359.78,82,-52.0,-27.0,-1012.0
-1,-100,-100,-100,"0,0,0",-2,6,-72,0,0,0,70,72,158,110,100,359.94,82,-71.0,-43.0,-1032.0
-1,-100,-100,-100,"0,0,0",-2,3,-76,0,0,0,70,72,156,110,100,359.81,82,-11.0,32.0,-986.0
-1,-100,-100,-100,"0,0,0",-3,2,-74,0,0,0,70,73,156,110,100,359.91,83,-33.0,-5.0,-1050.0
-1,-100,-100,-100,"0,0,0",0,0,-74,0,0,0,70,73,151,110,100,360.01,83,-33.0,-26.0,-905.0
-1,-100,-100,-100,"0,0,0",-1,2,-73,0,0,0,70,73,158,110,100,360.16,83,-60.0,-17.0,-963.0
-1,-100,-100,-100,"0,0,0",-4,0,-72,0,0,0,70,73,159,110,100,360.02,83,-67.0,-44.0,-1018.0
-1,-100,-100,-100,"0,0,0",-3,5,-74,0,0,0,70,73,162,110,100,359.84,83,-84.0,-24.0,-1055.0
-1,-100,-100,-100,"0,0,0",-3,8,-72,0,0,0,70,73,163,110,100,359.93,84,-61.0,-62.0,-1039.0
-1,-100,-100,-100,"0,0,0",-2,8,-70,-1,-1,0,70,73,164,110,100,359.87,84,-63.0,-48.0,-1005.0
-1,-100,-100,-100,"0,0,0",-2,8,-73,-3,-2,0,70,73,165,110,100,359.79,84,-48.0,-363.0,-902.0
-1,-100,-100,-100,"0,0,0",0,7,-100,0,-1,0,70,73,160,110,99,359.91,84,22.0,-80.0,-1026.0
-1,-100,-100,-100,"0,0,0",-3,4,-93,-1,0,0,70,73,157,120,99,359.75,84,16.0,-52.0,-915.0
-1,-100,-100,-100,"0,0,0",-1,-6,-82,0,0,0,70,73,33,120,99,359.69,85,-2.0,-53.0,-1026.0
-1,-100,-100,-100,"0,0,0",-1,-5,-75,2,0,0,70,73,74,120,99,359.85,85,-26.0,0.0,-1000.0
-1,-100,-100,-100,"0,0,0",-1,-6,-75,5,1,0,70,73,137,120,99,359.78,85,-17.0,-27.0,-1027.0
-1,-100,-100,-100,"0,0,0",-3,-3,-75,6,2,0,70,73,165,120,99,359.82,85,2.0,47.0,-958.0
-1,-100,-100,-100,"0,0,0",0,-5,-74,7,3,0,70,73,165,120,99,360.06,86,17.0,64.0,-1014.0
-1,-100,-100,-100,"0,0,0",-7,1,-73,7,4,0,70,72,160,120,99,359.82,86,12.0,50.0,-964.0
-1,-100,-100,-100,"0,0,0",-6,3,-74,4,6,0,70,72,160,120,99,359.79,86,-8.0,49.0,-1039.0
-1,-100,-100,-100,"0,0,0",-7,2,-74,1,7,0,70,72,159,110,98,359.76,86,-13.0,40.0,-1007.0
-1,-100,-100,-100,"0,0,0",-7,1,-74,0,9,0,70,72,158,110,98,359.68,86,-39.0,56.0,-1044.0
-1,-100,-100,-100,"0,0,0",-7,1,-74,0,10,0,70,72,157,110,98,359.65,87,-63.0,27.0,-995.0
-1,-100,-100,-100,"0,0,0",-7,2,-75,-1,11,0,70,73,157,110,98,359.65,87,-33.0,33.0,-973.0
-1,-100,-100,-100,"0,0,0",-5,1,-70,-2,12,0,70,73,153,110,98,359.68,87,-32.0,-3.0,-968.0
-1,-100,-100,-100,"0,0,0",4,1,-62,-2,12,0,70,73,152,110,98,359.73,87,-79.0,20.0,-1010.0
-1,-100,-100,-100,"0,0,0",1,2,-51,-2,9,0,70,73,152,110,98,359.74,87,-16.0,35.0,-1008.0
-1,-100,-100,-100,"0,0,0",2,3,-38,-2,7,0,70,73,107,110,98,359.77,88,15.0,62.0,-1028.0
-1,-100,-100,-100,"0,0,0",2,0,-26,-3,6,0,71,72,89,110,98,359.82,88,-15.0,45.0,-988.0
-1,-100,-100,-100,"0,0,0",2,1,-15,-2,5,0,71,72,58,110,98,359.87,88,37.0,22.0,-998.0
-1,-100,-100,-100,"0,0,0",2,2,-3,-2,4,0,71,72,47,110,97,359.91,88,44.0,45.0,-986.0
-1,-100,-100,-100,"0,0,0",2,1,5,-1,2,0,71,72,47,110,97,359.76,88,27.0,35.0,-999.0
-1,-100,-100,-100,"0,0,0",-1,0,13,-1,1,0,71,72,48,110,97,359.95,89,32.0,24.0,-983.0
-1,-100,-100,-100,"0,0,0",-2,0,21,-2,1,0,70,73,55,120,97,360.04,89,16.0,2.0,-999.0
-1,-100,-100,-100,"0,0,0",-2,0,33,-4,0,0,70,73,73,120,97,359.9,89,19.0,2.0,-994.0
-1,-100,-100,-100,"0,0,0",-2,0,42,-4,-1,0,70,73,6553,120,97,359.91,89,28.0,13.0,-1019.0
-1,-100,-100,-100,"0,0,0",-2,0,50,-5,-2,0,70,73,46,120,97,359.82,89,-4.0,20.0,-1025.0
-1,-100,-100,-100,"0,0,0",2,0,57,-4,-2,0,70,73,153,120,97,359.82,90,-11.0,11.0,-986.0
-1,-100,-100,-100,"0,0,0",2,0,61,-4,-2,0,70,73,153,120,97,359.79,90,0.0,17.0,-1007.0
-1,-100,-100,-100,"0,0,0",1,0,64,-3,-2,0,70,73,152,120,97,359.79,90,-6.0,23.0,-992.0
-1,-100,-100,-100,"0,0,0",2,0,76,-2,-1,0,70,73,149,120,96,359.87,90,15.0,3.0,-991.0
-1,-100,-100,-100,"0,0,0",2,1,80,-2,-1,0,70,73,147,120,96,359.81,90,25.0,7.0,-1003.0
-1,-100,-100,-100,"0,0,0",0,0,94,-1,0,-1,70,73,142,120,96,359.77,91,23.0,6.0,-1024.0
-1,-100,-100,-100,"0,0,0",0,0,94,-1,0,-1,70,73,142,120,96,359.77,91,23.0,6.0,-1024.0
-1,-100,-100,-100,"0,0,0",-4,0,106,-1,0,0,70,73,140,120,96,359.83,91,17.0,-15.0,-1009.0
-1,-100,-100,-100,"0,0,0",-6,0,107,0,-3,-1,70,73,137,120,96,359.77,91,16.0,-31.0,-1008.0
-1,-100,-100,-100,"0,0,0",0,1,107,1,-6,0,70,73,132,110,96,359.7,91,-18.0,0.0,-1019.0
-1,-100,-100,-100,"0,0,0",1,0,107,1,-5,0,70,73,131,110,96,359.68,92,-23.0,5.0,-1039.0
-1,-100,-100,-100,"0,0,0",2,0,107,1,-4,0,70,73,130,110,96,359.64,92,-26.0,-8.0,-1011.0
-1,-100,-100,-100,"0,0,0",2,0,107,1,-3,0,70,73,130,110,96,359.74,92,18.0,-15.0,-1025.0
-1,-100,-100,-100,"0,0,0",-2,-1,108,1,-2,0,70,73,130,110,95,359.67,92,-8.0,13.0,-974.0
-1,-100,-100,-100,"0,0,0",-6,0,108,1,-4,0,70,73,132,110,95,359.71,93,-34.0,14.0,-1005.0
-1,-100,-100,-100,"0,0,0",-5,-1,110,1,-6,0,70,73,131,110,95,359.52,93,-15.0,-20.0,-998.0
-1,-100,-100,-100,"0,0,0",-5,0,114,2,-7,0,70,73,132,110,95,359.49,93,-37.0,-2.0,-995.0
-1,-100,-100,-100,"0,0,0",-6,-1,117,2,-8,0,70,73,132,110,95,359.72,93,-39.0,-1.0,-988.0
-1,-100,-100,-100,"0,0,0",-4,0,119,3,-8,0,70,73,132,110,95,359.78,93,35.0,65.0,-937.0
-1,-100,-100,-100,"0,0,0",-2,-4,107,4,-9,0,70,73,130,110,95,359.69,94,-5.0,-11.0,-999.0
-1,-100,-100,-100,"0,0,0",-3,-2,105,4,-9,0,71,73,130,110,95,359.6,94,-59.0,37.0,-1053.0
-1,-100,-100,-100,"0,0,0",1,-2,105,3,-8,1,71,73,133,110,95,359.59,94,-51.0,4.0,-983.0
-1,-100,-100,-100,"0,0,0",2,-1,105,2,-7,0,71,73,134,120,95,359.65,94,-40.0,2.0,-964.0
-1,-100,-100,-100,"0,0,0",2,0,106,1,-5,0,71,73,136,120,94,359.76,94,-14.0,-9.0,-974.0
-1,-100,-100,-100,"0,0,0",1,0,106,1,-4,0,71,73,135,120,94,359.59,95,-9.0,-1.0,-976.0
-1,-100,-100,-100,"0,0,0",1,0,106,1,-3,0,71,73,134,120,94,359.58,95,-21.0,9.0,-979.0
-1,-100,-100,-100,"0,0,0",2,-1,106,0,-2,0,71,73,135,120,94,359.64,95,4.0,6.0,-997.0
-1,-100,-100,-100,"0,0,0",6,-1,106,0,0,0,71,73,134,120,94,359.73,95,-1.0,2.0,-977.0
-1,-100,-100,-100,"0,0,0",6,0,106,0,1,0,71,73,133,110,94,359.63,95,16.0,2.0,-1054.0
-1,-100,-100,-100,"0,0,0",7,1,106,-1,3,0,71,73,132,110,94,359.63,96,63.0,-4.0,-1020.0
-1,-100,-100,-100,"0,0,0",6,0,106,-1,4,0,71,74,131,110,94,359.7,96,42.0,17.0,-1028.0
-1,-100,-100,-100,"0,0,0",6,-1,106,-1,6,0,71,74,131,110,94,359.64,96,97.0,-4.0,-1005.0
-1,-100,-100,-100,"0,0,0",4,-2,106,-1,6,0,71,74,131,110,93,359.79,96,100.0,-9.0,-989.0
-1,-100,-100,-100,"0,0,0",0,0,106,-1,5,0,71,74,131,110,93,359.66,96,66.0,16.0,-991.0
-1,-100,-100,-100,"0,0,0",0,-1,106,0,5,0,71,74,130,110,93,359.84,97,43.0,52.0,-965.0
-1,-100,-100,-100,"0,0,0",0,-2,107,0,4,1,71,73,133,110,93,359.73,97,22.0,25.0,-1092.0
-1,-100,-100,-100,"0,0,0",-1,-1,107,0,3,3,71,73,139,120,93,359.75,97,42.0,21.0,-968.0
-1,-100,-100,-100,"0,0,0",-1,0,107,0,2,2,71,73,144,130,93,360.0,97,77.0,57.0,-927.0
-1,-100,-100,-100,"0,0,0",1,-2,107,0,1,1,71,73,148,130,93,359.9,97,73.0,61.0,-961.0
-1,-100,-100,-100,"0,0,0",1,-2,107,0,1,0,71,73,148,130,93,359.81,98,58.0,43.0,-956.0
-1,-100,-100,-100,"0,0,0",-2,-2,107,0,1,0,70,73,148,130,93,359.94,98,81.0,55.0,-1006.0
-1,-100,-100,-100,"0,0,0",2,-2,107,0,0,0,70,73,147,130,93,359.85,98,23.0,50.0,-1007.0
-1,-100,-100,-100,"0,0,0",2,-3,99,0,0,0,70,73,147,130,92,359.9,98,47.0,47.0,-1018.0
-1,-100,-100,-100,"0,0,0",1,-3,89,0,0,0,70,73,147,130,92,359.9,98,23.0,47.0,-1015.0
-1,-100,-100,-100,"0,0,0",0,-2,80,0,0,0,70,73,147,130,92,359.79,99,-24.0,58.0,-1016.0
-1,-100,-100,-100,"0,0,0",0,-3,72,0,0,0,71,73,147,130,92,359.67,99,-16.0,41.0,-951.0
-1,-100,-100,-100,"0,0,0",-5,0,62,0,0,0,71,73,148,130,92,359.93,99,17.0,48.0,-993.0
-1,-100,-100,-100,"0,0,0",-7,-2,51,0,-3,0,71,73,151,130,92,359.88,99,-4.0,64.0,-1009.0
-1,-100,-100,-100,"0,0,0",0,-4,35,-2,-4,0,71,73,150,130,92,359.87,100,-35.0,48.0,-981.0
-1,-100,-100,-100,"0,0,0",0,-4,25,-2,-3,0,71,73,149,130,92,359.81,100,-35.0,16.0,-986.0
-1,-100,-100,-100,"0,0,0",0,-1,17,-2,-2,0,71,73,63,130,92,359.73,100,-34.0,25.0,-1007.0
-1,-100,-100,-100,"0,0,0",0,-1,9,-1,-1,0,71,73,129,130,92,359.81,100,1.0,-9.0,-986.0
-1,-100,-100,-100,"0,0,0",0,0,1,-2,-1,0,71,73,146,130,92,359.83,100,-34.0,25.0,-1030.0
-1,-100,-100,-100,"0,0,0",-6,0,-7,-3,0,0,71,73,148,130,92,359.89,101,18.0,-24.0,-1010.0
-1,-100,-100,-100,"0,0,0",-7,0,-17,-5,0,0,71,73,148,130,92,359.71,101,-26.0,-4.0,-997.0
-1,-100,-100,-100,"0,0,0",-7,0,-27,-7,1,0,71,73,149,130,92,359.72,101,4.0,15.0,-979.0
-1,-100,-100,-100,"0,0,0",0,-2,-36,-8,0,0,71,73,150,130,92,359.61,101,-91.0,12.0,-1028.0
-1,-100,-100,-100,"0,0,0",-1,-2,-45,-5,0,0,71,73,150,130,92,359.66,101,-61.0,-4.0,-1012.0
-1,-100,-100,-100,"0,0,0",6,-2,-56,-4,0,0,71,73,34,130,92,359.84,102,-70.0,12.0,-1033.0
-1,-100,-100,-100,"0,0,0",6,-3,-67,-2,-2,0,70,73,57,130,92,359.89,102,-52.0,2.0,-979.0
-1,-100,-100,-100,"0,0,0",4,-1,-75,0,-3,0,70,73,87,130,92,359.85,102,-14.0,0.0,-1017.0
-1,-100,-100,-100,"0,0,0",5,-2,-84,0,-4,0,70,73,157,130,92,359.91,102,-4.0,-11.0,-990.0
-1,-100,-100,-100,"0,0,0",1,0,-92,1,-5,0,70,73,155,130,92,359.95,102,10.0,-20.0,-984.0
-1,-100,-100,-100,"0,0,0",-7,1,-104,1,-2,0,70,73,159,130,92,359.94,103,37.0,-17.0,-993.0
-1,-100,-100,-100,"0,0,0",-6,1,-108,1,-1,0,71,73,158,130,92,359.69,103,-5.0,-1.0,-1026.0
-1,-100,-100,-100,"0,0,0",-6,2,-117,1,1,0,71,73,159,130,92,359.97,103,-49.0,12.0,-947.0
-1,-100,-100,-100,"0,0,0",-7,2,-128,2,4,0,71,73,159,130,92,359.91,103,-33.0,-39.0,-1004.0
-1,-100,-100,-100,"0,0,0",-8,2,-137,3,5,0,71,73,159,130,92,359.88,103,-16.0,-27.0,-932.0
-1,-100,-100,-100,"0,0,0",-6,1,-146,5,7,0,71,73,155,130,92,359.98,104,-98.0,-46.0,-1056.0
-1,-100,-100,-100,"0,0,0",-7,1,-155,6,6,0,71,74,156,130,92,359.96,104,-51.0,-43.0,-988.0
-1,-100,-100,-100,"0,0,0",-7,2,-163,7,7,0,71,74,143,130,92,359.91,104,-60.0,-15.0,-1026.0
-1,-100,-100,-100,"0,0,0",0,-1,-171,7,7,0,71,74,155,130,92,359.94,104,-44.0,-20.0,-996.0
-1,-100,-100,-100,"0,0,0",1,-2,179,6,5,0,71,74,155,130,92,360.05,104,-35.0,-34.0,-975.0
-1,-100,-100,-100,"0,0,0",0,-2,170,4,4,0,71,74,115,130,92,360.0,105,-29.0,-13.0,-993.0
-1,-100,-100,-100,"0,0,0",0,-1,163,4,3,0,71,74,98,130,92,359.9,105,-9.0,-5.0,-1029.0
-1,-100,-100,-100,"0,0,0",0,-2,155,3,3,0,71,74,94,130,92,359.86,105,-15.0,-19.0,-990.0
-1,-100,-100,-100,"0,0,0",0,-1,146,2,3,0,71,74,69,140,92,359.99,105,-43.0,43.0,-978.0
-1,-100,-100,-100,"0,0,0",-2,-4,136,2,4,0,71,74,74,140,92,359.92,105,-66.0,39.0,-934.0
-1,-100,-100,-100,"0,0,0",-3,-4,125,1,4,0,71,74,72,140,92,359.86,106,-48.0,9.0,-991.0
-1,-100,-100,-100,"0,0,0",-4,-3,116,1,4,0,71,73,64,130,92,359.9,106,-46.0,-4.0,-1031.0
-1,-100,-100,-100,"0,0,0",-5,-1,104,0,2,0,71,73,60,130,92,359.76,106,-33.0,-13.0,-1039.0
-1,-100,-100,-100,"0,0,0",-3,0,93,0,1,0,71,73,62,130,92,359.84,106,-20.0,0.0,-1018.0
-1,-100,-100,-100,"0,0,0",-4,1,80,0,0,0,71,73,57,130,92,359.82,107,-40.0,-4.0,-994.0
-1,-100,-100,-100,"0,0,0",-3,2,79,0,0,0,71,73,59,130,92,359.72,107,-36.0,-20.0,-1030.0
-1,-100,-100,-100,"0,0,0",-1,1,80,0,0,0,71,74,59,130,92,359.73,107,-39.0,-1.0,-1041.0
-1,-100,-100,-100,"0,0,0",0,1,88,0,0,0,71,74,59,130,91,359.82,107,-49.0,23.0,-1037.0
-1,-100,-100,-100,"0,0,0",-1,-1,98,0,0,0,71,74,58,130,91,359.68,107,-44.0,11.0,-979.0
-1,-100,-100,-100,"0,0,0",-2,0,107,0,0,0,71,74,58,130,91,359.63,108,-36.0,25.0,-1011.0
-1,-100,-100,-100,"0,0,0",-2,0,109,0,0,0,71,73,57,130,91,359.68,108,-58.0,31.0,-969.0
-1,-100,-100,-100,"0,0,0",-4,-1,110,0,0,0,71,73,55,130,91,359.75,108,-26.0,10.0,-986.0
-1,-100,-100,-100,"0,0,0",-5,0,110,0,0,0,71,73,56,130,91,359.78,108,-39.0,20.0,-1000.0
-1,-100,-100,-100,"0,0,0",-4,0,110,0,-1,0,71,73,59,130,91,359.61,108,-43.0,7.0,-959.0
-1,-100,-100,-100,"0,0,0",-4,0,110,1,-2,0,71,73,59,130,91,359.65,109,-49.0,26.0,-991.0
-1,-100,-100,-100,"0,0,0",-4,0,110,1,-2,0,71,74,58,130,91,359.74,109,-42.0,23.0,-925.0
-1,-100,-100,-100,"0,0,0",-2,0,110,1,-2,0,71,74,58,130,91,359.79,109,-68.0,19.0,-1019.0
-1,-100,-100,-100,"0,0,0",-5,0,109,1,-2,0,71,74,56,130,91,359.62,109,-45.0,4.0,-990.0
-1,-100,-100,-100,"0,0,0",-3,-1,109,1,-3,0,71,74,54,130,91,359.63,109,-70.0,-7.0,-1004.0
-1,-100,-100,-100,"0,0,0",0,0,110,0,-3,0,71,74,56,130,91,359.66,110,-57.0,12.0,-1024.0
-1,-100,-100,-100,"0,0,0",-1,0,110,0,-2,0,71,73,56,130,91,359.76,110,-58.0,16.0,-1031.0
-1,-100,-100,-100,"0,0,0",-1,0,111,0,-1,0,71,73,57,130,91,359.74,110,-16.0,33.0,-956.0
-1,-100,-100,-100,"0,0,0",3,0,113,0,-1,0,71,73,57,130,91,359.68,110,20.0,-3.0,-986.0
-1,-100,-100,-100,"0,0,0",1,0,121,0,0,0,71,73,57,130,91,359.76,110,-21.0,51.0,-985.0
-1,-100,-100,-100,"0,0,0",-2,1,121,0,0,0,71,73,58,130,91,359.77,111,1.0,-26.0,-1012.0
-1,-100,-100,-100,"0,0,0",0,0,122,0,0,0,71,74,60,130,91,359.83,111,-1.0,-3.0,-979.0
-1,-100,-100,-100,"0,0,0",-1,-1,122,0,0,0,71,74,57,130,91,359.74,111,-14.0,46.0,-969.0
-1,-100,-100,-100,"0,0,0",0,-2,121,0,0,0,71,74,56,130,91,359.79,111,-7.0,47.0,-988.0
-1,-100,-100,-100,"0,0,0",0,-3,121,0,0,0,71,74,57,130,91,359.77,112,-4.0,50.0,-1036.0
-1,-100,-100,-100,"0,0,0",0,-1,121,1,0,0,71,74,57,130,91,359.77,112,4.0,50.0,-1014.0
-1,-100,-100,-100,"0,0,0",0,-2,120,1,0,0,71,73,57,130,91,359.79,112,-40.0,21.0,-1036.0
-1,-100,-100,-100,"0,0,0",-1,-1,120,0,1,0,71,73,58,130,91,359.75,112,-42.0,0.0,-967.0
-1,-100,-100,-100,"0,0,0",-1,-1,121,0,0,0,71,73,58,130,91,359.8,112,-16.0,41.0,-1024.0
-1,-100,-100,-100,"0,0,0",-1,-3,121,0,0,0,71,73,57,130,91,359.79,113,1.0,38.0,-980.0
-1,-100,-100,-100,"0,0,0",0,-3,120,0,0,0,71,73,56,130,91,359.8,113,15.0,42.0,-985.0
-1,-100,-100,-100,"0,0,0",0,-2,121,0,0,0,71,74,55,130,91,359.89,113,30.0,58.0,-1006.0
-1,-100,-100,-100,"0,0,0",0,-5,121,0,0,0,71,74,55,130,91,359.71,113,0.0,55.0,-998.0
-1,-100,-100,-100,"0,0,0",0,-2,121,0,0,0,71,74,55,130,90,359.71,113,-7.0,59.0,-1051.0
-1,-100,-100,-100,"0,0,0",0,-2,120,0,0,0,71,74,55,130,90,359.61,114,-17.0,22.0,-1005.0
-1,-100,-100,-100,"0,0,0",-1,-1,120,0,0,0,71,74,56,130,90,359.58,114,-6.0,23.0,-921.0
-1,-100,-100,-100,"0,0,0",-1,0,120,0,0,-1,71,74,53,130,90,359.61,114,-24.0,-5.0,-917.0
-1,-100,-100,-100,"0,0,0",-1,1,120,-1,0,-3,71,74,47,120,90,359.71,114,-20.0,3.0,-960.0
-1,-100,-100,-100,"0,0,0",-2,1,121,0,0,-3,71,74,40,120,90,359.64,114,-22.0,10.0,-1059.0
-1,-100,-100,-100,"0,0,0",-2,0,120,0,0,-1,71,74,36,110,90,359.77,115,-35.0,33.0,-1056.0
-1,-100,-100,-100,"0,0,0",-3,-1,120,0,0,0,71,74,36,110,90,359.44,115,-25.0,41.0,-1059.0
-1,-100,-100,-100,"0,0,0",-2,0,121,0,0,0,72,73,34,110,90,359.41,115,-49.0,21.0,-1037.0
-1,-100,-100,-100,"0,0,0",-3,0,120,0,0,0,72,73,37,110,90,359.56,115,-50.0,25.0,-991.0
-1,-100,-100,-100,"0,0,0",-3,0,121,1,-1,0,72,73,39,110,90,359.44,115,-30.0,14.0,-1020.0
-1,-100,-100,-100,"0,0,0",-3,-1,121,1,-1,0,72,73,47,110,90,359.46,116,-59.0,45.0,-978.0
-1,-100,-100,-100,"0,0,0",-3,-1,121,0,-1,0,71,74,57,110,90,359.48,116,-36.0,27.0,-992.0
-1,-100,-100,-100,"0,0,0",2,0,120,0,0,0,71,74,103,110,90,359.54,116,-53.0,5.0,-1002.0
-1,-100,-100,-100,"0,0,0",-1,6,119,0,0,0,71,74,104,110,90,359.4,116,-21.0,9.0,-1009.0
-1,-100,-100,-100,"0,0,0",0,6,120,2,0,0,71,74,103,110,90,359.58,116,11.0,43.0,-1041.0
-1,-100,-100,-100,"0,0,0",0,3,121,4,1,0,71,74,31,110,90,359.5,117,-7.0,37.0,-989.0
-1,-100,-100,-100,"0,0,0",0,-1,121,4,2,0,71,73,28,110,90,359.47,117,14.0,14.0,-980.0
-1,-100,-100,-100,"0,0,0",0,-4,121,3,1,0,71,73,29,110,90,359.45,117,17.0,45.0,-998.0
-1,-100,-100,-100,"0,0,0",0,-3,121,3,1,0,71,73,30,110,90,359.41,117,11.0,29.0,-1006.0
-1,-100,-100,-100,"0,0,0",0,-3,121,2,0,0,71,73,31,110,90,359.52,117,0.0,6.0,-993.0
-1,-100,-100,-100,"0,0,0",0,-3,121,1,0,0,71,73,31,110,90,359.54,118,27.0,1.0,-996.0
-1,-100,-100,-100,"0,0,0",0,-2,121,0,0,0,71,73,31,110,90,359.49,118,-6.0,1.0,-1000.0
-1,-100,-100,-100,"0,0,0",0,-2,121,-1,0,0,71,73,31,110,90,359.52,118,-10.0,44.0,-1024.0
-1,-100,-100,-100,"0,0,0",-1,-2,121,0,0,0,71,73,31,110,90,359.62,118,-10.0,50.0,-1000.0
-1,-100,-100,-100,"0,0,0",-1,-1,121,0,0,0,71,73,30,110,90,359.62,118,16.0,52.0,-1000.0
-1,-100,-100,-100,"0,0,0",0,0,121,0,0,0,71,73,30,110,90,359.52,119,6.0,33.0,-1002.0
-1,-100,-100,-100,"0,0,0",0,0,121,1,0,0,71,73,30,110,90,359.67,119,2.0,55.0,-990.0
-1,-100,-100,-100,"0,0,0",0,-1,121,1,0,0,71,73,31,110,90,359.63,119,-2.0,45.0,-1011.0
-1,-100,-100,-100,"0,0,0",0,-3,121,1,0,0,71,73,32,110,90,359.51,119,-5.0,26.0,-1013.0
-1,-100,-100,-100,"0,0,0",0,0,121,1,0,0,71,73,54,110,90,359.46,119,-7.0,41.0,-1008.0
-1,-100,-100,-100,"0,0,0",-1,1,121,2,1,0,71,73,52,110,90,359.57,120,10.0,30.0,-1001.0
-1,-100,-100,-100,"0,0,0",0,1,121,3,1,0,72,74,53,110,90,359.63,120,21.0,19.0,-974.0
-1,-100,-100,-100,"0,0,0",0,3,121,0,0,0,72,74,52,110,90,359.51,120,13.0,-5.0,-976.0
-1,-100,-100,-100,"0,0,0",-3,2,120,1,0,0,72,74,48,110,90,359.59,120,-2.0,-12.0,-1044.0
-1,-100,-100,-100,"0,0,0",-1,1,121,2,0,0,72,74,52,110,90,359.61,121,-22.0,-9.0,-1025.0
-1,-100,-100,-100,"0,0,0",-4,0,122,2,0,0,72,74,54,110,90,359.57,121,20.0,7.0,-968.0
-1,-100,-100,-100,"0,0,0",-1,0,122,2,0,0,71,73,54,110,90,359.59,121,-35.0,25.0,-962.0
-1,-100,-100,-100,"0,0,0",-1,0,121,1,0,0,71,73,37,110,90,359.67,121,-33.0,27.0,-980.0
-1,-100,-100,-100,"0,0,0",1,-4,120,1,0,0,71,73,34,110,90,359.67,121,-34.0,1.0,-1062.0
-1,-100,-100,-100,"0,0,0",0,-2,121,0,0,0,71,73,33,110,90,359.64,122,13.0,31.0,-988.0
-1,-100,-100,-100,"0,0,0",0,-2,121,0,0,0,71,73,33,110,90,359.49,122,8.0,31.0,-976.0
-1,-100,-100,-100,"0,0,0",0,-1,121,0,0,0,71,73,31,110,90,359.61,122,9.0,36.0,-1017.0
-1,-100,-100,-100,"0,0,0",0,-1,120,0,0,0,71,73,29,110,90,359.57,122,20.0,29.0,-996.0
-1,-100,-100,-100,"0,0,0",0,-2,120,0,0,0,71,73,27,110,90,359.52,122,-1.0,43.0,-1014.0
-1,-100,-100,-100,"0,0,0",-1,0,121,0,0,-3,72,75,10,20,89,355.18,125,32.0,172.0,-2286.0
-1,-100,-100,-100,"0,0,0",0,0,116,0,0,-1,72,75,10,0,89,357.46,126,41.0,-54.0,-975.0
-1,-100,-100,-100,"0,0,0",0,0,116,0,0,0,71,74,10,0,89,358.02,126,6.0,13.0,-1005.0
-1,-100,-100,-100,"0,0,0",0,0,116,0,0,0,71,74,10,0,89,358.28,126,11.0,19.0,-1000.0
-1,-100,-100,-100,"0,0,0",0,0,116,0,0,0,71,74,10,0,89,358.29,126,0.0,22.0,-999.0
-1,-100,-100,-100,"0,0,0",0,0,116,0,0,-1,71,74,10,0,89,358.32,126,4.0,19.0,-996.0
-1,-100,-100,-100,"0,0,0",0,0,116,0,0,-1,71,74,10,0,89,358.28,126,7.0,15.0,-996.0
-1,-100,-100,-100,"0,0,0",0,0,116,0,0,-1,71,74,10,0,89,358.35,126,6.0,16.0,-998.0
-1,-100,-100,-100,"0,0,0",0,-1,116,0,0,0,71,74,10,0,89,358.33,126,6.0,16.0,-1000.0
-1,-100,-100,-100,"0,0,0",0,-1,116,0,0,0,71,74,10,0,89,358.35,126,9.0,16.0,-999.0
-1,-100,-100,-100,"0,0,0",0,-1,116,0,0,0,71,74,10,0,89,358.27,126,8.0,16.0,-1001.0
-1,-100,-100,-100,"0,0,0",0,-1,116,0,0,0,71,74,10,0,89,358.32,126,9.0,15.0,-1002.0
-1,-100,-100,-100,"0,0,0",0,-1,117,0,0,0,72,74,10,0,89,358.33,126,7.0,17.0,-998.0
-1,-100,-100,-100,"0,0,0",0,-1,117,0,0,0,72,74,10,0,89,358.37,126,8.0,17.0,-999.0
-1,-100,-100,-100,"0,0,0",0,-1,117,0,0,0,72,74,10,0,89,358.34,126,8.0,15.0,-1000.0
-1,-100,-100,-100,"0,0,0",0,-1,117,0,0,0,72,74,10,0,89,358.35,126,10.0,16.0,-999.0
-1,-100,-100,-100,"0,0,0",0,-1,117,0,0,0,72,74,10,0,89,358.4,126,8.0,16.0,-999.0
-1,-100,-100,-100,"0,0,0",0,-1,117,0,0,0,72,73,10,0,89,358.34,126,8.0,15.0,-1001.0
-1,-100,-100,-100,"0,0,0",0,-1,117,0,0,0,72,73,10,0,89,358.38,126,7.0,17.0,-998.0
-1,-100,-100,-100,"0,0,0",0,-1,117,0,0,0,72,73,10,0,89,358.37,126,7.0,14.0,-998.0
-1,-100,-100,-100,"0,0,0",0,-1,117,0,0,0,72,73,10,0,89,358.42,126,7.0,15.0,-1001.0
-1,-100,-100,-100,"0,0,0",0,-1,117,0,0,0,72,73,10,0,89,358.34,126,8.0,16.0,-1001.0
-1,-100,-100,-100,"0,0,0",0,-1,117,0,0,0,71,74,10,0,89,358.34,126,8.0,16.0,-1000.0
-1,-100,-100,-100,"0,0,0",-1,1,117,0,0,0,71,74,79,60,89,359.33,134,-11.0,-21.0,-981.0
-1,-100,-100,-100,"0,0,0",-1,1,117,0,0,0,71,74,79,60,89,359.31,134,-8.0,-22.0,-1018.0
-1,-100,-100,-100,"0,0,0",-1,2,117,0,0,0,71,74,80,60,89,359.22,135,-16.0,-14.0,-1021.0
-1,-100,-100,-100,"0,0,0",-2,2,117,0,0,0,71,74,81,60,89,359.24,135,-6.0,-8.0,-991.0
-1,-100,-100,-100,"0,0,0",-1,1,117,0,0,0,71,74,81,60,89,359.19,135,-7.0,-21.0,-975.0
-1,-100,-100,-100,"0,0,0",-1,1,117,0,0,0,71,75,81,60,89,359.19,135,20.0,-1.0,-1010.0
-1,-100,-100,-100,"0,0,0",-1,0,117,0,0,0,71,75,80,60,89,359.21,135,-5.0,-18.0,-974.0
-1,-100,-100,-100,"0,0,0",-5,0,117,1,0,0,71,75,79,60,89,359.23,136,-19.0,0.0,-1005.0
-1,-100,-100,-100,"0,0,0",-5,0,117,1,-1,0,71,75,80,60,89,359.3,136,-31.0,-8.0,-996.0
-1,-100,-100,-100,"0,0,0",-5,0,117,1,-2,0,72,74,80,60,89,359.28,136,-7.0,-13.0,-1026.0
-1,-100,-100,-100,"0,0,0",-5,0,117,1,-3,0,72,74,81,60,89,359.23,136,-23.0,-4.0,-1021.0
-1,-100,-100,-100,"0,0,0",-4,1,117,2,-4,0,72,74,80,60,89,359.21,136,-42.0,24.0,-1005.0
-1,-100,-100,-100,"0,0,0",-5,0,117,2,-4,0,72,74,79,60,89,359.23,137,-53.0,11.0,-977.0
-1,-100,-100,-100,"0,0,0",-5,0,117,2,-4,0,72,74,79,60,89,359.25,137,-31.0,-20.0,-988.0
-1,-100,-100,-100,"0,0,0",-5,0,116,2,-5,0,72,74,78,60,89,359.25,137,-48.0,-20.0,-993.0
-1,-100,-100,-100,"0,0,0",-2,1,116,3,-6,0,72,74,79,60,89,359.07,137,-28.0,33.0,-1016.0
-1,-100,-100,-100,"0,0,0",0,0,116,3,-5,0,72,74,78,60,89,359.2,137,-29.0,34.0,-990.0
-1,-100,-100,-100,"0,0,0",0,-1,116,2,-4,1,72,74,80,60,89,359.29,138,-31.0,7.0,-1118.0
-1,-100,-100,-100,"0,0,0",0,0,116,2,-4,3,72,74,86,60,89,359.27,138,0.0,37.0,-1039.0
-1,-100,-100,-100,"0,0,0",1,-1,116,2,-2,4,71,74,94,70,89,359.3,138,-17.0,30.0,-1043.0
-1,-100,-100,-100,"0,0,0",0,-1,116,2,-2,4,71,74,104,80,89,359.59,138,-4.0,54.0,-1051.0
-1,-100,-100,-100,"0,0,0",1,-3,116,2,-1,4,71,74,113,90,89,359.61,138,-13.0,73.0,-968.0
-1,-100,-100,-100,"0,0,0",2,-1,116,1,-2,5,71,74,129,100,89,359.75,139,28.0,34.0,-1023.0
-1,-100,-100,-100,"0,0,0",2,0,113,0,-1,4,71,74,139,110,89,359.7,139,48.0,2.0,-1005.0
-1,-100,-100,-100,"0,0,0",0,0,104,0,0,2,72,74,145,120,89,359.82,139,-3.0,2.0,-915.0
-1,-100,-100,-100,"0,0,0",0,2,95,0,0,0,72,74,148,120,89,359.86,139,15.0,-16.0,-953.0
-1,-100,-100,-100,"0,0,0",0,2,87,0,0,0,72,74,149,120,89,359.98,140,19.0,4.0,-998.0
-1,-100,-100,-100,"0,0,0",1,2,80,0,0,0,72,74,149,120,89,359.93,140,21.0,25.0,-986.0
-1,-100,-100,-100,"0,0,0",1,0,72,0,0,0,72,74,150,130,89,359.92,140,21.0,49.0,-965.0
-1,-100,-100,-100,"0,0,0",1,-1,62,0,0,0,72,75,150,120,89,359.87,140,10.0,52.0,-1021.0
-1,-100,-100,-100,"0,0,0",0,-1,54,0,0,0,72,75,149,130,89,359.96,140,7.0,18.0,-996.0
-1,-100,-100,-100,"0,0,0",0,-1,48,0,0,0,72,75,150,120,89,359.83,141,-24.0,-12.0,-984.0
-1,-100,-100,-100,"0,0,0",0,1,41,0,1,0,72,75,148,120,89,359.94,141,14.0,-18.0,-1025.0
-1,-100,-100,-100,"0,0,0",0,4,32,0,0,0,72,75,148,120,89,359.91,141,-37.0,13.0,-1048.0
-1,-100,-100,-100,"0,0,0",0,1,20,0,0,0,72,74,148,120,89,359.87,141,-26.0,-40.0,-1025.0
-1,-100,-100,-100,"0,0,0",-6,4,10,0,0,0,72,74,149,120,89,359.91,141,-38.0,50.0,-963.0
-1,-100,-100,-100,"0,0,0",-7,0,1,-1,-1,0,72,74,152,120,89,359.69,142,-42.0,25.0,-991.0
-1,-100,-100,-100,"0,0,0",-7,-1,-6,-3,-1,0,72,74,152,120,89,360.02,142,-27.0,-5.0,-955.0
-1,-100,-100,-100,"0,0,0",-7,1,-15,-5,-1,0,72,74,150,130,89,359.8,142,-85.0,30.0,-1037.0
-1,-100,-100,-100,"0,0,0",-6,-1,-24,-6,-1,0,71,74,150,130,89,359.88,142,-42.0,5.0,-988.0
-1,-100,-100,-100,"0,0,0",-7,0,-37,-8,0,0,71,74,150,130,89,359.83,142,-100.0,29.0,-932.0
-1,-100,-100,-100,"0,0,0",-7,-2,-46,-8,1,0,71,74,150,130,89,359.89,143,-88.0,-4.0,-947.0
-1,-100,-100,-100,"0,0,0",-3,-3,-54,-8,2,0,71,74,147,130,89,359.9,143,-78.0,-5.0,-1016.0
-1,-100,-100,-100,"0,0,0",0,-1,-61,-7,2,0,72,75,147,120,89,359.83,143,-63.0,-12.0,-1001.0
-1,-100,-100,-100,"0,0,0",0,-2,-69,-6,2,0,72,75,147,120,89,359.85,143,-43.0,-1.0,-987.0
-1,-100,-100,-100,"0,0,0",0,-2,-80,-5,1,0,72,75,151,120,89,359.87,143,-43.0,-30.0,-977.0
-1,-100,-100,-100,"0,0,0",6,-3,-91,-3,1,0,72,75,154,120,89,359.79,144,-29.0,-34.0,-994.0
-1,-100,-100,-100,"0,0,0",6,-2,-99,-3,-1,0,72,75,151,120,89,359.98,144,-7.0,3.0,-1004.0
-1,-100,-100,-100,"0,0,0",6,-2,-106,-3,-3,0,71,74,159,120,89,359.78,144,17.0,22.0,-1024.0
-1,-100,-100,-100,"0,0,0",3,-5,-114,-2,-4,0,71,74,166,130,89,359.83,144,13.0,-7.0,-1036.0
-1,-100,-100,-100,"0,0,0",-7,0,-122,-1,-4,0,71,74,168,130,89,359.78,144,5.0,13.0,-995.0
-1,-100,-100,-100,"0,0,0",-7,0,-131,0,-2,0,71,74,163,130,89,359.84,145,-17.0,4.0,-1000.0
-1,-100,-100,-100,"0,0,0",-7,1,-140,1,0,0,71,74,164,130,89,359.91,145,3.0,-8.0,-1001.0
-1,-100,-100,-100,"0,0,0",-7,2,-149,3,1,0,71,74,161,130,89,359.82,145,0.0,-24.0,-1026.0
-1,-100,-100,-100,"0,0,0",-7,1,-151,5,3,0,71,74,160,130,88,359.8,145,-23.0,-6.0,-1017.0
-1,-100,-100,-100,"0,0,0",-7,0,-151,7,5,0,71,74,160,130,88,359.74,146,-55.0,-18.0,-994.0
-1,-100,-100,-100,"0,0,0",-7,0,-151,9,5,0,71,74,140,130,88,359.75,146,-67.0,-25.0,-966.0
-1,-100,-100,-100,"0,0,0",-5,0,-159,10,6,0,71,74,136,130,88,359.57,146,-81.0,-6.0,-1029.0
-1,-100,-100,-100,"0,0,0",1,-1,-169,7,5,0,72,74,135,130,88,359.76,146,-70.0,6.0,-998.0
-1,-100,-100,-100,"0,0,0",0,-2,-177,5,4,0,72,74,133,130,88,359.84,146,-64.0,-13.0,-992.0
-1,-100,-100,-100,"0,0,0",0,-2,175,4,3,0,72,74,133,130,88,359.74,147,-59.0,-1.0,-997.0
-1,-100,-100,-100,"0,0,0",-3,-2,166,3,3,0,72,74,132,130,88,359.73,147,-41.0,3.0,-1026.0
-1,-100,-100,-100,"0,0,0",-6,-1,157,4,1,0,72,74,132,120,88,359.76,147,-24.0,-8.0,-1009.0
-1,-100,-100,-100,"0,0,0",-6,0,150,5,0,0,71,74,131,120,88,359.78,147,-25.0,-23.0,-1014.0
-1,-100,-100,-100,"0,0,0",-6,0,144,6,0,0,71,74,131,120,88,359.75,147,-52.0,14.0,-1027.0
-1,-100,-100,-100,"0,0,0",-6,-1,136,7,-1,0,71,74,118,120,88,359.67,148,-47.0,-4.0,-1022.0
-1,-100,-100,-100,"0,0,0",-2,-1,127,6,-2,0,71,74,129,120,88,359.52,148,-68.0,-16.0,-1037.0
-1,-100,-100,-100,"0,0,0",0,0,118,5,-1,0,71,74,61,120,88,359.67,148,-75.0,20.0,-962.0
-1,-100,-100,-100,"0,0,0",-1,-2,107,5,-1,0,72,74,55,120,88,359.55,148,-74.0,30.0,-1009.0
-1,-100,-100,-100,"0,0,0",0,-1,97,4,-1,0,72,74,55,120,88,359.64,148,-22.0,-1.0,-996.0
-1,-100,-100,-100,"0,0,0",0,-3,89,4,-1,0,72,74,62,130,88,359.76,149,-4.0,22.0,-1004.0
-1,-100,-100,-100,"0,0,0",-4,-2,74,1,-1,0,72,74,113,130,88,359.74,149,-21.0,25.0,-975.0
-1,-100,-100,-100,"0,0,0",-5,0,69,1,-1,0,72,74,87,130,88,359.77,149,-11.0,-23.0,-1052.0
-1,-100,-100,-100,"0,0,0",-6,1,61,0,-4,0,72,74,130,120,88,359.65,149,-44.0,-4.0,-1008.0
-1,-100,-100,-100,"0,0,0",-4,0,61,-1,-5,0,72,74,130,120,88,359.69,150,-47.0,10.0,-1002.0
-1,-100,-100,-100,"0,0,0",0,0,60,-1,-5,0,72,74,124,120,88,359.62,150,-60.0,17.0,-1028.0
-1,-100,-100,-100,"0,0,0",0,0,60,0,-3,0,72,74,122,120,88,359.64,150,-68.0,6.0,-1006.0
-1,-100,-100,-100,"0,0,0",-1,0,60,0,-2,1,71,74,120,120,88,359.6,150,-63.0,18.0,-1132.0
-1,-100,-100,-100,"0,0,0",-2,0,61,0,-2,2,71,74,125,130,87,359.84,150,-8.0,60.0,-1038.0
-1,-100,-100,-100,"0,0,0",-1,-2,61,0,-2,3,71,74,129,130,87,359.77,151,-73.0,32.0,-966.0
-1,-100,-100,-100,"0,0,0",-7,0,61,0,-2,1,71,74,139,140,87,359.91,151,-48.0,21.0,-935.0
-1,-100,-100,-100,"0,0,0",-7,-1,59,-1,-3,0,71,74,141,140,87,359.9,151,-32.0,19.0,-973.0
-1,-100,-100,-100,"0,0,0",-6,2,52,-2,-6,0,72,75,151,140,87,360.15,151,-15.0,60.0,-1021.0
-1,-100,-100,-100,"0,0,0",-6,-1,38,-3,-7,0,72,75,154,140,87,359.76,151,-56.0,-17.0,-1019.0
-1,-100,-100,-100,"0,0,0",0,0,25,-4,-6,0,72,75,154,140,87,359.9,152,-52.0,-23.0,-969.0
-1,-100,-100,-100,"0,0,0",0,0,16,-3,-5,0,72,75,153,140,87,359.92,152,-47.0,-7.0,-1018.0
-1,-100,-100,-100,"0,0,0",0,-1,6,-2,-4,0,72,75,153,140,87,359.99,152,-27.0,-3.0,-971.0
-1,-100,-100,-100,"0,0,0",0,-2,-1,-2,-4,0,72,74,150,150,87,359.93,152,-49.0,9.0,-980.0
-1,-100,-100,-100,"0,0,0",0,-2,-11,-2,-3,0,72,74,150,140,87,359.9,152,-26.0,-2.0,-1004.0
-1,-100,-100,-100,"0,0,0",0,-1,-22,-1,-2,0,72,74,147,140,87,359.93,153,-6.0,-8.0,-998.0
-1,-100,-100,-100,"0,0,0",0,-1,-36,-1,-1,0,72,74,145,140,87,359.81,153,5.0,1.0,-1013.0
-1,-100,-100,-100,"0,0,0",0,-1,-45,-1,-1,0,72,74,145,140,87,359.84,153,-16.0,13.0,-995.0
-1,-100,-100,-100,"0,0,0",-3,-2,-54,0,0,0,72,75,145,140,87,359.89,153,-36.0,-8.0,-1002.0
-1,-100,-100,-100,"0,0,0",-7,0,-63,0,1,0,72,75,146,140,87,359.89,153,-43.0,-18.0,-1029.0
-1,-100,-100,-100,"0,0,0",-7,1,-71,-1,3,0,72,75,147,140,87,359.83,154,-43.0,-6.0,-1007.0
-1,-100,-100,-100,"0,0,0",-6,0,-80,-2,4,0,72,75,146,140,87,359.79,154,-47.0,-38.0,-1025.0
-1,-100,-100,-100,"0,0,0",-7,1,-88,-2,6,0,72,75,147,140,87,359.74,154,-35.0,-7.0,-972.0
-1,-100,-100,-100,"0,0,0",-7,1,-92,-2,8,0,71,75,147,140,87,359.8,154,-76.0,-15.0,-1053.0
-1,-100,-100,-100,"0,0,0",-7,0,-92,-1,8,0,71,75,147,140,87,359.81,154,-61.0,-17.0,-954.0
-1,-100,-100,-100,"0,0,0",-6,0,-92,-1,9,0,71,75,147,140,87,359.57,155,-95.0,-1.0,-1011.0
-1,-100,-100,-100,"0,0,0",-6,-3,-93,-1,10,0,71,75,147,140,87,359.88,155,-59.0,-55.0,-962.0
-1,-100,-100,-100,"0,0,0",0,0,-100,0,9,0,71,75,145,140,87,359.81,155,-40.0,-4.0,-1066.0
-1,-100,-100,-100,"0,0,0",1,-1,-107,0,8,0,72,74,145,140,86,359.74,155,-55.0,-15.0,-997.0
-1,-100,-100,-100,"0,0,0",1,-1,-113,-1,6,0,72,74,144,140,86,359.8,155,-25.0,9.0,-1000.0
-1,-100,-100,-100,"0,0,0",0,-3,-120,-1,5,0,72,74,143,140,86,359.74,156,-38.0,3.0,-1014.0
-1,-100,-100,-100,"0,0,0",0,-2,-127,0,4,0,72,74,143,140,86,359.69,156,-27.0,5.0,-992.0
-1,-100,-100,-100,"0,0,0",0,-3,-136,0,4,0,72,74,123,140,86,359.78,156,-24.0,18.0,-988.0
-1,-100,-100,-100,"0,0,0",0,-2,-149,0,2,0,72,75,88,140,86,359.93,156,8.0,-2.0,-1016.0
-1,-100,-100,-100,"0,0,0",0,-1,-157,0,2,0,72,75,6553,140,86,359.75,157,-7.0,-4.0,-992.0
-1,-100,-100,-100,"0,0,0",-1,-1,-165,0,1,0,72,75,39,140,86,359.82,157,-25.0,2.0,-1020.0
-1,-100,-100,-100,"0,0,0",-1,-3,-173,0,0,0,72,75,21,140,86,359.91,157,-25.0,-11.0,-1040.0
-1,-100,-100,-100,"0,0,0",-2,0,178,0,0,0,72,74,21,140,86,359.84,157,-32.0,-4.0,-1026.0
-1,-100,-100,-100,"0,0,0",-1,-1,169,0,0,2,72,74,25,140,86,359.86,157,-41.0,36.0,-1114.0
-1,-100,-100,-100,"0,0,0",-2,1,156,0,0,1,72,74,31,140,86,359.96,158,-27.0,-3.0,-962.0
-1,-100,-100,-100,"0,0,0",-1,0,143,0,0,0,72,74,35,140,86,359.87,158,-13.0,-5.0,-944.0
-1,-100,-100,-100,"0,0,0",0,1,130,0,0,0,72,74,43,150,86,359.84,158,-31.0,-13.0,-964.0
-1,-100,-100,-100,"0,0,0",-1,0,120,0,0,0,72,74,34,150,86,360.02,158,-8.0,-17.0,-1013.0
-1,-100,-100,-100,"0,0,0",-3,1,111,0,0,0,72,74,43,150,86,359.89,158,-4.0,-1.0,-982.0
-1,-100,-100,-100,"0,0,0",-4,1,109,0,-1,0,72,74,55,150,86,360.08,159,29.0,-11.0,-985.0
-1,-100,-100,-100,"0,0,0",-3,0,109,0,-3,0,72,74,132,150,86,359.88,159,-53.0,-5.0,-1033.0
-1,-100,-100,-100,"0,0,0",-6,1,109,1,-3,0,72,74,151,150,86,359.8,159,-25.0,-15.0,-998.0
-1,-100,-100,-100,"0,0,0",-7,0,109,2,-5,0,72,74,150,150,86,359.79,159,-45.0,-18.0,-1010.0
-1,-100,-100,-100,"0,0,0",-7,1,109,2,-7,0,72,74,150,150,86,359.77,159,-39.0,6.0,-1024.0
-1,-100,-100,-100,"0,0,0",-6,1,109,3,-8,0,72,74,152,150,86,359.75,160,-48.0,-14.0,-991.0
-1,-100,-100,-100,"0,0,0",-4,0,109,3,-9,0,72,74,149,150,86,359.77,160,-47.0,4.0,-996.0
-1,-100,-100,-100,"0,0,0",-4,0,109,4,-10,0,72,74,150,150,86,359.74,160,-66.0,32.0,-978.0
-1,-100,-100,-100,"0,0,0",-5,-1,109,4,-10,0,72,75,149,140,86,359.81,160,-18.0,28.0,-1008.0
-1,-100,-100,-100,"0,0,0",-1,-1,109,5,-11,0,72,75,146,140,86,359.68,160,-41.0,-5.0,-1062.0
-1,-100,-100,-100,"0,0,0",5,0,109,3,-10,0,72,75,147,140,86,359.76,161,-50.0,28.0,-1022.0
-1,-100,-100,-100,"0,0,0",7,0,110,2,-7,0,72,75,148,140,86,359.9,161,-32.0,26.0,-1025.0
-1,-100,-100,-100,"0,0,0",7,0,110,2,-4,0,72,75,148,140,86,359.9,161,30.0,11.0,-990.0
-1,-100,-100,-100,"0,0,0",7,0,113,1,-2,0,72,74,148,140,86,359.84,161,-26.0,37.0,-1020.0
-1,-100,-100,-100,"0,0,0",5,-1,113,0,0,0,72,74,147,140,86,359.89,161,10.0,8.0,-1033.0
-1,-100,-100,-100,"0,0,0",1,0,109,0,0,0,72,74,146,140,86,359.96,162,17.0,-8.0,-1028.0
-1,-100,-100,-100,"0,0,0",0,0,109,0,0,0,72,74,147,140,86,359.89,162,46.0,4.0,-965.0
-1,-100,-100,-100,"0,0,0",1,0,109,0,0,0,72,74,148,140,86,359.86,162,26.0,12.0,-1012.0
-1,-100,-100,-100,"0,0,0",1,0,109,0,0,0,72,73,150,150,85,359.83,162,26.0,-3.0,-956.0
-1,-100,-100,-100,"0,0,0",0,0,109,0,0,0,72,73,148,150,85,360.04,162,15.0,1.0,-1010.0
-1,-100,-100,-100,"0,0,0",-4,0,109,0,-1,0,72,73,147,150,85,359.92,163,56.0,-4.0,-1016.0
-1,-100,-100,-100,"0,0,0",0,0,109,1,-2,0,72,73,146,140,85,359.99,163,30.0,28.0,-967.0
-1,-100,-100,-100,"0,0,0",2,0,108,1,-2,0,72,73,145,140,85,359.96,163,15.0,51.0,-1027.0
-1,-100,-100,-100,"0,0,0",6,-1,108,1,-1,0,72,74,143,140,85,359.99,163,8.0,60.0,-998.0
-1,-100,-100,-100,"0,0,0",7,-1,108,0,0,0,72,74,143,140,85,359.94,163,38.0,28.0,-992.0
-1,-100,-100,-100,"0,0,0",6,-1,108,0,1,0,72,74,146,140,85,359.93,164,20.0,35.0,-969.0
-1,-100,-100,-100,"0,0,0",6,-1,109,0,4,0,72,74,149,140,85,359.92,164,52.0,12.0,-1029.0
-1,-100,-100,-100,"0,0,0",6,-1,109,-1,5,0,72,74,150,140,85,359.85,164,50.0,-9.0,-1035.0
-1,-100,-100,-100,"0,0,0",7,0,109,-2,6,0,72,74,151,140,85,359.95,164,26.0,-15.0,-974.0
-1,-100,-100,-100,"0,0,0",7,0,109,-3,8,0,72,74,152,140,85,359.91,165,43.0,-8.0,-969.0
-1,-100,-100,-100,"0,0,0",7,1,108,-4,9,0,72,74,152,140,85,359.88,165,82.0,22.0,-979.0
-1,-100,-100,-100,"0,0,0",6,0,108,-2,10,0,72,74,153,150,85,359.99,165,155.0,39.0,-987.0
-1,-100,-100,-100,"0,0,0",7,-2,108,-2,9,0,72,74,154,150,85,359.98,165,119.0,0.0,-1025.0
-1,-100,-100,-100,"0,0,0",2,0,108,-3,9,0,72,74,153,150,85,359.88,165,119.0,38.0,-1040.0
-1,-100,-100,-100,"0,0,0",-6,0,108,-2,7,0,72,74,156,150,85,359.93,166,86.0,13.0,-979.0
-1,-100,-100,-100,"0,0,0",-6,0,109,-1,4,0,72,74,155,150,85,360.02,166,28.0,11.0,-991.0
-1,-100,-100,-100,"0,0,0",-6,0,109,0,1,0,72,74,155,150,85,359.84,166,20.0,-6.0,-992.0
-1,-100,-100,-100,"0,0,0",-7,0,109,0,-1,0,72,74,153,150,85,359.94,166,17.0,12.0,-975.0
-1,-100,-100,-100,"0,0,0",-6,0,109,1,-3,0,72,74,151,150,84,359.94,166,-12.0,0.0,-952.0
-1,-100,-100,-100,"0,0,0",-7,0,109,1,-5,0,72,74,151,150,84,359.86,167,5.0,13.0,-1046.0
-1,-100,-100,-100,"0,0,0",-6,0,109,2,-7,0,72,74,150,140,84,359.68,167,-32.0,34.0,-1003.0
-1,-100,-100,-100,"0,0,0",-7,0,109,3,-9,0,72,74,151,140,84,359.98,167,-1.0,5.0,-958.0
-1,-100,-100,-100,"0,0,0",-3,-2,108,4,-11,0,72,75,149,140,84,359.78,167,-2.0,40.0,-940.0
-1,-100,-100,-100,"0,0,0",-4,0,108,3,-10,0,72,75,149,140,84,359.83,168,-61.0,44.0,-1101.0
-1,-100,-100,-100,"0,0,0",-1,-1,108,3,-10,0,72,75,149,150,84,359.76,168,-61.0,33.0,-1032.0
-1,-100,-100,-100,"0,0,0",1,0,109,3,-8,0,72,75,151,150,84,359.94,168,-68.0,14.0,-1013.0
-1,-100,-100,-100,"0,0,0",3,-1,109,2,-7,0,72,75,152,150,84,360.07,168,-5.0,9.0,-1011.0
-1,-100,-100,-100,"0,0,0",5,0,109,2,-5,0,72,74,151,150,84,360.08,168,-4.0,15.0,-947.0
-1,-100,-100,-100,"0,0,0",6,0,109,2,-3,0,72,74,146,150,84,359.99,169,10.0,28.0,-1009.0
-1,-100,-100,-100,"0,0,0",6,-1,109,1,-1,0,72,74,142,140,84,360.05,169,16.0,55.0,-1022.0
-1,-100,-100,-100,"0,0,0",6,-1,109,0,0,0,72,74,138,140,84,359.92,169,34.0,28.0,-1011.0
-1,-100,-100,-100,"0,0,0",6,0,109,0,1,0,72,74,143,140,84,359.97,169,44.0,17.0,-978.0
-1,-100,-100,-100,"0,0,0",6,0,108,0,2,0,72,75,148,140,84,359.99,169,64.0,3.0,-1022.0
-1,-100,-100,-100,"0,0,0",7,0,108,-1,4,0,72,75,152,140,84,360.09,170,67.0,2.0,-981.0
-1,-100,-100,-100,"0,0,0",7,0,108,-1,5,0,72,75,154,140,84,360.01,170,88.0,22.0,-1015.0
-1,-100,-100,-100,"0,0,0",7,0,108,-2,6,0,72,75,156,150,84,359.95,170,58.0,10.0,-964.0
-1,-100,-100,-100,"0,0,0",7,0,108,-3,8,0,72,75,157,150,84,359.97,170,83.0,-19.0,-973.0
-1,-100,-100,-100,"0,0,0",7,1,108,-3,9,0,72,75,157,150,84,360.06,170,77.0,39.0,-967.0
-1,-100,-100,-100,"0,0,0",1,-1,108,-2,9,0,72,75,154,150,84,360.04,171,120.0,33.0,-1018.0
-1,-100,-100,-100,"0,0,0",-7,-1,109,-2,6,0,72,75,154,150,84,359.79,171,93.0,14.0,-1029.0
-1,-100,-100,-100,"0,0,0",2,0,109,-1,2,0,72,75,152,150,84,360.0,171,100.0,-10.0,-981.0
-1,-100,-100,-100,"0,0,0",1,0,109,-1,1,-1,72,75,149,150,84,359.99,171,95.0,-5.0,-1003.0
-1,-100,-100,-100,"0,0,0",2,1,109,-1,1,0,72,75,148,140,84,359.97,171,113.0,0.0,-1014.0
-1,-100,-100,-100,"0,0,0",0,1,109,0,0,0,72,75,148,140,84,359.96,172,51.0,21.0,-1016.0
-1,-100,-100,-100,"0,0,0",0,0,109,0,0,0,72,75,147,140,84,359.98,172,68.0,-22.0,-999.0
-1,-100,-100,-100,"0,0,0",1,0,112,0,0,0,72,75,148,140,84,360.02,172,70.0,-2.0,-987.0
-1,-100,-100,-100,"0,0,0",2,2,118,0,0,0,72,75,148,140,84,360.02,172,9.0,15.0,-996.0
-1,-100,-100,-100,"0,0,0",1,1,123,0,0,0,72,75,149,140,84,360.05,172,44.0,-12.0,-1024.0
-1,-100,-100,-100,"0,0,0",1,2,123,0,0,0,72,75,152,150,84,360.0,173,68.0,-36.0,-983.0
-1,-100,-100,-100,"0,0,0",2,2,130,0,0,0,72,75,153,150,84,360.05,173,77.0,-23.0,-999.0
-1,-100,-100,-100,"0,0,0",-3,1,138,1,-1,0,72,75,153,150,84,359.97,173,59.0,-25.0,-974.0
-1,-100,-100,-100,"0,0,0",-6,0,148,3,-3,0,72,75,153,150,83,360.06,173,31.0,-21.0,-1024.0
-1,-100,-100,-100,"0,0,0",-5,1,159,5,-4,0,72,75,151,150,83,359.99,173,-7.0,-11.0,-1034.0
-1,-100,-100,-100,"0,0,0",1,2,162,5,-3,0,72,75,148,150,83,360.05,174,0.0,-6.0,-1031.0
-1,-100,-100,-100,"0,0,0",2,1,161,5,-2,0,72,75,149,140,83,359.94,174,-8.0,8.0,-1022.0
-1,-100,-100,-100,"0,0,0",1,0,161,4,-1,0,72,75,149,140,83,360.09,174,-5.0,38.0,-937.0
-1,-100,-100,-100,"0,0,0",3,-2,161,3,0,0,72,74,150,150,83,360.08,174,-53.0,45.0,-1018.0
-1,-100,-100,-100,"0,0,0",-6,-1,169,3,0,0,72,74,151,150,83,359.97,175,-27.0,21.0,-1026.0
-1,-100,-100,-100,"0,0,0",-6,-1,177,4,0,0,72,74,151,150,83,359.92,175,-60.0,31.0,-978.0
-1,-100,-100,-100,"0,0,0",0,-1,-172,5,0,0,72,74,151,150,83,359.98,175,-10.0,26.0,-979.0
-1,-100,-100,-100,"0,0,0",0,0,-165,4,0,0,72,74,150,150,83,359.86,175,-26.0,51.0,-996.0
-1,-100,-100,-100,"0,0,0",0,-1,-172,3,0,0,72,74,145,150,83,360.05,175,3.0,26.0,-992.0
-1,-100,-100,-100,"0,0,0",1,-1,179,3,0,0,72,74,139,150,83,360.0,176,-30.0,32.0,-1021.0
-1,-100,-100,-100,"0,0,0",1,-1,169,3,0,0,72,74,137,140,83,360.04,176,21.0,8.0,-989.0
-1,-100,-100,-100,"0,0,0",1,-1,156,2,0,0,72,74,135,140,83,360.0,176,18.0,9.0,-1037.0
-1,-100,-100,-100,"0,0,0",2,-2,144,2,0,0,72,74,128,140,83,359.85,176,14.0,19.0,-972.0
-1,-100,-100,-100,"0,0,0",2,-3,133,1,0,0,73,75,59,140,83,359.95,176,-1.0,11.0,-1000.0
-1,-100,-100,-100,"0,0,0",0,-3,123,0,0,0,73,75,42,140,83,359.91,177,29.0,22.0,-1023.0
-1,-100,-100,-100,"0,0,0",1,-2,115,0,0,0,73,75,50,140,83,359.98,177,55.0,44.0,-1007.0
-1,-100,-100,-100,"0,0,0",0,-2,106,0,0,0,73,75,61,140,83,359.97,177,13.0,38.0,-968.0
-1,-100,-100,-100,"0,0,0",0,-2,98,0,0,0,73,75,77,140,83,360.15,177,43.0,52.0,-991.0
-1,-100,-100,-100,"0,0,0",0,-2,89,0,0,0,73,75,86,140,83,360.0,177,-1.0,36.0,-991.0
-1,-100,-100,-100,"0,0,0",0,-2,81,0,0,0,73,75,124,140,83,360.13,178,-11.0,15.0,-1016.0
-1,-100,-100,-100,"0,0,0",0,1,68,-1,0,0,73,75,138,140,83,360.05,178,5.0,-10.0,-1017.0
-1,-100,-100,-100,"0,0,0",0,1,61,-1,0,0,73,75,138,140,83,360.09,178,10.0,-7.0,-859.0
-1,-100,-100,-100,"0,0,0",1,2,58,0,0,-2,72,75,139,140,82,360.15,178,0.0,16.0,-913.0
-1,-100,-100,-100,"0,0,0",1,2,63,0,0,-4,72,75,130,130,82,359.88,178,-21.0,35.0,-978.0
-1,-100,-100,-100,"0,0,0",0,-1,68,0,0,-4,72,75,114,130,82,359.89,179,9.0,-6.0,-1095.0
-1,-100,-100,-100,"0,0,0",-2,0,77,0,0,-2,72,75,106,120,82,359.87,179,-6.0,22.0,-1074.0
-1,-100,-100,-100,"0,0,0",-5,-1,99,0,0,-1,72,75,100,110,82,359.82,179,-16.0,64.0,-1080.0
-1,-100,-100,-100,"0,0,0",-4,-3,116,1,-2,0,72,75,96,110,82,359.69,179,-24.0,80.0,-1050.0
-1,-100,-100,-100,"0,0,0",-4,-2,117,1,-3,0,72,75,97,110,82,359.61,179,7.0,63.0,-1005.0
-1,-100,-100,-100,"0,0,0",-2,-4,113,2,-4,0,72,75,109,110,82,359.51,180,-38.0,30.0,-1047.0
-1,-100,-100,-100,"0,0,0",0,-2,113,1,-4,0,72,75,115,110,82,359.67,180,-50.0,30.0,-1010.0
-1,-100,-100,-100,"0,0,0",0,-1,113,1,-3,0,72,75,116,110,82,359.59,180,-13.0,11.0,-984.0
-1,-100,-100,-100,"0,0,0",1,0,113,0,-3,0,72,75,109,110,82,359.61,180,-15.0,0.0,-974.0
-1,-100,-100,-100,"0,0,0",6,0,113,0,-2,0,72,75,66,110,82,359.62,180,-19.0,-3.0,-979.0
-1,-100,-100,-100,"0,0,0",3,0,114,0,0,0,72,75,84,110,82,359.67,181,-16.0,0.0,-997.0
-1,-100,-100,-100,"0,0,0",0,0,114,0,0,0,72,75,110,110,82,359.71,181,-24.0,26.0,-997.0
-1,-100,-100,-100,"0,0,0",-1,0,114,-1,1,0,72,75,112,110,82,359.79,181,-4.0,30.0,-997.0
-1,-100,-100,-100,"0,0,0",-1,-5,114,-1,0,0,72,75,115,110,82,359.77,181,-10.0,17.0,-969.0
-1,-100,-100,-100,"0,0,0",0,-7,115,-2,0,0,72,75,115,110,82,359.68,182,-12.0,45.0,-966.0
-1,-100,-100,-100,"0,0,0",-1,-6,116,-4,-2,0,72,75,106,110,82,359.71,182,66.0,33.0,-1027.0
-1,-100,-100,-100,"0,0,0",1,0,114,-4,-3,0,72,75,110,110,82,359.68,182,77.0,58.0,-1057.0
-1,-100,-100,-100,"0,0,0",2,5,114,-2,-2,0,72,75,111,110,82,359.72,182,61.0,50.0,-1036.0
-1,-100,-100,-100,"0,0,0",2,6,114,0,-1,0,72,75,111,110,82,359.84,182,73.0,21.0,-987.0
-1,-100,-100,-100,"0,0,0",3,1,114,2,0,0,72,75,73,110,82,359.71,183,56.0,4.0,-997.0
-1,-100,-100,-100,"0,0,0",2,-1,114,2,0,0,72,75,99,110,82,359.85,183,17.0,21.0,-998.0
-1,-100,-100,-100,"0,0,0",2,-4,114,1,0,0,72,75,115,110,82,359.82,183,37.0,1.0,-1009.0
-1,-100,-100,-100,"0,0,0",1,-3,114,0,0,0,72,75,114,110,82,359.7,183,33.0,8.0,-1015.0
-1,-100,-100,-100,"0,0,0",1,0,114,0,0,0,72,75,114,110,82,359.76,183,1.0,18.0,-988.0
-1,-100,-100,-100,"0,0,0",0,0,114,0,0,0,72,75,113,110,82,359.8,184,3.0,15.0,-995.0
-1,-100,-100,-100,"0,0,0",0,0,115,0,0,0,72,75,113,110,82,359.71,184,-7.0,-1.0,-1000.0
-1,-100,-100,-100,"0,0,0",-4,0,115,0,0,0,72,75,113,110,82,359.7,184,10.0,8.0,-981.0
-1,-100,-100,-100,"0,0,0",-2,0,115,0,0,0,72,75,112,110,82,359.61,184,-28.0,-1.0,-1008.0
-1,-100,-100,-100,"0,0,0",3,0,115,-1,0,0,72,75,112,110,82,359.73,184,15.0,-9.0,-954.0
-1,-100,-100,-100,"0,0,0",0,0,115,-1,1,0,72,75,111,110,82,359.81,185,27.0,-20.0,-1026.0
-1,-100,-100,-100,"0,0,0",-1,1,115,-1,0,0,72,75,110,110,82,359.73,185,3.0,-12.0,-980.0
-1,-100,-100,-100,"0,0,0",-2,1,115,0,0,0,72,75,111,110,82,359.63,185,52.0,-10.0,-979.0
-1,-100,-100,-100,"0,0,0",0,1,115,0,0,0,72,75,110,110,82,359.75,185,12.0,5.0,-1026.0
-1,-100,-100,-100,"0,0,0",1,1,115,0,0,0,72,75,111,110,82,359.59,185,-22.0,25.0,-983.0
-1,-100,-100,-100,"0,0,0",0,0,115,0,0,0,72,75,112,110,82,359.62,186,-6.0,5.0,-995.0
-1,-100,-100,-100,"0,0,0",-1,0,115,0,0,0,72,75,112,110,82,359.65,186,-42.0,32.0,-1013.0
-1,-100,-100,-100,"0,0,0",-2,0,115,0,0,0,72,75,112,110,82,359.6,186,-18.0,-5.0,-1025.0
-1,-100,-100,-100,"0,0,0",-1,-1,114,0,0,0,72,75,112,110,82,359.83,186,-28.0,10.0,-1024.0
-1,-100,-100,-100,"0,0,0",-1,-6,114,-1,0,0,72,75,113,110,82,359.72,187,-1.0,7.0,-1006.0
-1,-100,-100,-100,"0,0,0",-1,-5,114,-3,-1,0,72,75,113,110,82,359.78,187,-15.0,16.0,-1001.0
-1,-100,-100,-100,"0,0,0",-1,0,115,-3,-1,0,72,75,113,110,82,359.73,187,-7.0,33.0,-977.0
-1,-100,-100,-100,"0,0,0",-1,1,115,-3,-1,0,72,75,112,110,82,359.77,187,-4.0,9.0,-972.0
-1,-100,-100,-100,"0,0,0",-1,5,115,-1,0,0,72,75,111,110,81,359.76,187,-25.0,29.0,-1003.0
-1,-100,-100,-100,"0,0,0",0,5,115,0,0,0,72,75,110,110,81,359.84,188,2.0,7.0,-1035.0
-1,-100,-100,-100,"0,0,0",0,2,114,2,0,0,72,75,108,110,81,359.71,188,46.0,-25.0,-978.0
-1,-100,-100,-100,"0,0,0",0,0,114,2,0,0,72,75,110,110,81,359.75,188,-5.0,-16.0,-1029.0
-1,-100,-100,-100,"0,0,0",0,-4,114,1,0,0,72,75,111,110,81,359.8,188,49.0,-3.0,-1052.0
-1,-100,-100,-100,"0,0,0",0,-1,114,0,0,0,72,75,113,110,81,359.85,188,28.0,-9.0,-990.0
-1,-100,-100,-100,"0,0,0",1,0,114,0,0,0,72,75,115,110,81,359.72,189,4.0,5.0,-962.0
-1,-100,-100,-100,"0,0,0",0,-1,114,0,0,0,72,75,68,110,81,359.84,189,11.0,0.0,-1004.0
-1,-100,-100,-100,"0,0,0",0,0,115,0,0,0,72,75,112,110,81,359.81,189,-4.0,-1.0,-1025.0
-1,-100,-100,-100,"0,0,0",-6,0,114,0,-1,0,72,75,114,110,81,359.72,189,1.0,2.0,-1022.0
-1,-100,-100,-100,"0,0,0",-5,1,114,1,-4,0,72,75,114,110,81,359.74,189,14.0,-9.0,-980.0
-1,-100,-100,-100,"0,0,0",0,0,115,1,-4,0,72,75,113,110,81,359.88,190,-3.0,-9.0,-1018.0
-1,-100,-100,-100,"0,0,0",-3,0,115,2,-5,0,72,75,113,110,81,359.86,190,32.0,10.0,-1003.0
-1,-100,-100,-100,"0,0,0",2,0,115,2,-5,0,72,75,113,110,81,359.74,190,-21.0,19.0,-996.0
-1,-100,-100,-100,"0,0,0",3,0,115,2,-3,0,72,75,113,110,81,359.79,190,37.0,21.0,-1030.0
-1,-100,-100,-100,"0,0,0",6,-1,115,2,-2,0,73,74,110,110,81,359.89,190,10.0,33.0,-1018.0
-1,-100,-100,-100,"0,0,0",5,0,114,1,0,0,73,74,104,110,81,359.82,191,53.0,29.0,-1036.0
-1,-100,-100,-100,"0,0,0",5,-1,114,1,0,0,73,74,103,110,81,359.88,191,46.0,53.0,-1001.0
-1,-100,-100,-100,"0,0,0",5,-1,114,0,1,0,73,74,108,110,81,359.89,191,56.0,6.0,-1005.0
-1,-100,-100,-100,"0,0,0",6,-1,114,0,2,0,73,75,117,110,81,359.92,191,58.0,-4.0,-988.0
-1,-100,-100,-100,"0,0,0",6,0,114,0,3,0,73,75,120,110,81,359.84,192,61.0,-1.0,-1005.0
-1,-100,-100,-100,"0,0,0",6,0,114,-1,4,0,73,75,122,110,81,359.8,192,56.0,19.0,-1016.0
-1,-100,-100,-100,"0,0,0",5,-1,114,-2,5,0,73,75,80,110,81,359.76,192,22.0,8.0,-990.0
-1,-100,-100,-100,"0,0,0",0,0,115,-2,5,0,73,75,39,110,81,359.73,192,50.0,-2.0,-962.0
-1,-100,-100,-100,"0,0,0",0,0,114,-2,4,0,72,74,120,110,81,359.7,192,47.0,4.0,-993.0
-1,-100,-100,-100,"0,0,0",0,0,115,-1,3,0,72,74,120,110,81,359.76,193,27.0,0.0,-1010.0
-1,-100,-100,-100,"0,0,0",0,0,114,-1,2,0,72,74,119,110,81,359.78,193,58.0,13.0,-1028.0
-1,-100,-100,-100,"0,0,0",1,-1,115,0,1,0,72,74,119,110,81,359.73,193,54.0,16.0,-993.0
-1,-100,-100,-100,"0,0,0",1,0,114,0,1,0,72,74,119,110,81,359.57,193,62.0,5.0,-1014.0
-1,-100,-100,-100,"0,0,0",-4,0,114,0,0,0,73,75,120,110,81,359.73,193,21.0,10.0,-989.0
-1,-100,-100,-100,"0,0,0",-6,0,114,0,-1,0,73,75,120,110,81,359.94,194,9.0,11.0,-1008.0
-1,-100,-100,-100,"0,0,0",-6,0,115,1,-3,0,73,75,119,110,81,359.79,194,-53.0,12.0,-991.0
-1,-100,-100,-100,"0,0,0",-6,0,116,2,-4,0,73,75,119,110,81,359.76,194,-28.0,37.0,-997.0
-1,-100,-100,-100,"0,0,0",-5,0,115,3,-6,0,73,75,57,110,80,359.73,194,-29.0,19.0,-1017.0
-1,-100,-100,-100,"0,0,0",-2,-2,115,4,-7,0,72,75,115,110,80,359.64,194,-50.0,47.0,-1032.0
-1,-100,-100,-100,"0,0,0",6,0,114,3,-5,0,72,75,119,110,80,359.72,195,-9.0,29.0,-1011.0
